"site_order","site_description","site_id","category","coastline","long","lat","active","site_id-2","sample_date","sample_time","analysis_completed","sample_temp_c","censored_value","numeric_value","filename","lab_code","monitoring_group"
"36","Long Beach Kommetjie","XCN02","Recreational Node","Atlantic","18.32828889","-34.13676667","True","XCN02","2025-07-04","09:56:00","2025-07-06","1.5","8","8","CWQ_125(04.07.2025).pdf","WLAB","routine"
"35","Noordhoek Beach (Hoek)","CS40","Recreational Node","Atlantic","18.35242828","-34.09751307","True","CS40","2025-07-04","10:45:00","2025-07-06","1.5","41","41","CWQ_125(04.07.2025).pdf","WLAB","routine"
"83","Noordhoek WWTW Outflow","CN29","Coastal Monitoring Point","Atlantic","18.34236","-34.126827","True","CN29","2025-07-04","10:08:00","2025-07-06","1.5","83","83","CWQ_125(04.07.2025).pdf","WLAB","routine"
"84","The Kom","XCN01","Coastal Monitoring Point","Atlantic","18.3233","-34.14173333","True","XCN01","2025-07-04","09:50:00","2025-07-06","1.5","188","188","CWQ_125(04.07.2025).pdf","WLAB","routine"
"37","Inner Kom","CS39","Recreational Node","Atlantic","18.318809","-34.144279","True","CS39","2025-07-04","09:44:00","2025-07-06","1.5","6","6","CWQ_125(04.07.2025).pdf","WLAB","routine"
"38","Scarborough Beach","XCN11","Recreational Node","Atlantic","18.37188861","-34.19988722","True","XCN11","2025-07-04","09:23:00","2025-07-06","1.5","63","63","CWQ_125(04.07.2025).pdf","WLAB","routine"
"67","Strand Pipe Surfing","XCS34","Recreational Node","False Bay","18.81328622","-34.10333837","True","XCS34","2025-07-04","08:18:00","2025-07-06","3.2","790","790","Oelofse G.119.pdf","WLAB","daily"
"24","Camps Bay Central","CN41","Recreational Node","Atlantic","18.37711225","-33.95092422","True","CN41","2025-07-04","08:10:00","2025-07-06","1.5","12","12","Infinity Environmental AD.181.pdf","WLAB","daily"
"25","Camps Bay South","CN11","Recreational Node","Atlantic","18.37566417","-33.95262556","True","CN11","2025-07-04","08:05:00","2025-07-06","1.5","9","9","Infinity Environmental AD.181.pdf","WLAB","daily"
"22","Glen Beach","CN31","Recreational Node","Atlantic","18.377192","-33.947056","True","CN31","2025-07-04","08:17:00","2025-07-06","1.5","32","32","Infinity Environmental AD.181.pdf","WLAB","daily"
"68","Strand Lifesaving Club","XCS26","Recreational Node","False Bay","18.81753333","-34.10616667","True","XCS26","2025-07-04","08:09:00","2025-07-06","3.2","550","550","Oelofse G.119.pdf","WLAB","daily"
"53","Dalebrook Tidal Pool","CS03","Recreational Node","False Bay","18.45291667","-34.12403333","True","CS03","2025-07-03","09:41:00","2025-07-05","1.4","39","39","CWQ_124(03.07.2025).pdf","WLAB","routine"
"87","Simons Town Diving School","XCS22","Coastal Monitoring Point","False Bay","18.42901","-34.191781","True","XCS22","2025-07-03","10:55:00","2025-07-05","1.4","286","286","CWQ_124(03.07.2025).pdf","WLAB","routine"
"86","Simons Town Harbour","XCS21","Coastal Monitoring Point","False Bay","18.432861","-34.192772","True","XCS21","2025-07-03","11:02:00","2025-07-05","1.4","960","960","CWQ_124(03.07.2025).pdf","WLAB","routine"
"43","Seaforth Beach","XCS13","Recreational Node","False Bay","18.44663889","-34.19394444","True","XCS13","2025-07-03","11:11:00","2025-07-05","1.4","2 660","2660","CWQ_124(03.07.2025).pdf","WLAB","routine"
"57","Muizenberg Pavilion","CS16","Recreational Node","False Bay","18.472645","-34.107968","True","CS16","2025-07-03","09:05:00","2025-07-05","1.4","193","193","CWQ_124(03.07.2025).pdf","WLAB","routine"
"54","Dangers Beach","CS44","Recreational Node","False Bay","18.4561023","-34.12143007","True","CS44","2025-07-03","09:36:00","2025-07-05","1.4","30","30","CWQ_124(03.07.2025).pdf","WLAB","routine"
"42","Boulders Beach","XCS32","Recreational Node","False Bay","18.45221667","-34.19796667","True","XCS32","2025-07-03","11:23:00","2025-07-05","1.4","450","450","CWQ_124(03.07.2025).pdf","WLAB","routine"
"41","Windmill Beach","CS36","Recreational Node","False Bay","18.45634199","-34.20104751","True","CS36","2025-07-03","11:32:00","2025-07-05","1.4","330","330","CWQ_124(03.07.2025).pdf","WLAB","routine"
"40","Fishermans Beach","XCS12","Recreational Node","False Bay","18.45838889","-34.20596667","True","XCS12","2025-07-03","11:40:00","2025-07-05","1.4","283","283","CWQ_124(03.07.2025).pdf","WLAB","routine"
"85","Millers Point","XCS11","Coastal Monitoring Point","False Bay","18.471959","-34.229893","True","XCS11","2025-07-03","11:57:00","2025-07-05","1.4","11","11","CWQ_124(03.07.2025).pdf","WLAB","routine"
"39","Miller's Point Tidal Pool","CS37","Recreational Node","False Bay","18.476052","-34.231397","True","CS37","2025-07-03","12:15:00","2025-07-05","1.4","52","52","CWQ_124(03.07.2025).pdf","WLAB","routine"
"56","Muizenberg Surfers Corner","CS34","Recreational Node","False Bay","18.470834","-34.108983","True","CS34","2025-07-03","09:11:00","2025-07-05","1.4","234","234","CWQ_124(03.07.2025).pdf","WLAB","routine"
"88","Muizenberg Station","CS06","Coastal Monitoring Point","False Bay","18.468846","-34.10961","True","CS06","2025-07-03","09:17:00","2025-07-05","1.4","350","350","CWQ_124(03.07.2025).pdf","WLAB","routine"
"55","St James Tidal Pool","CS04","Recreational Node","False Bay","18.459533","-34.118862","True","CS04","2025-07-03","09:26:00","2025-07-05","1.4","52","52","CWQ_124(03.07.2025).pdf","WLAB","routine"
"52","Kalk Bay Tidal Pool","CS02","Recreational Node","False Bay","18.4506","-34.12638333","True","CS02","2025-07-03","09:47:00","2025-07-05","1.4","203","203","CWQ_124(03.07.2025).pdf","WLAB","routine"
"51","Kalk Bay Harbour Beach","CS01A","Recreational Node","False Bay","18.4483","-34.12875","True","CS01A","2025-07-03","09:54:00","2025-07-05","1.4","920","920","CWQ_124(03.07.2025).pdf","WLAB","routine"
"45","Glencairn Tidal Pool","CS38","Recreational Node","False Bay","18.432068","-34.162559","True","CS38","2025-07-03","10:39:00","2025-07-05","1.4","156","156","CWQ_124(03.07.2025).pdf","WLAB","routine"
"46","Glencairn Beach","XCS15","Recreational Node","False Bay","18.43218333","-34.15981667","True","XCS15","2025-07-03","10:33:00","2025-07-05","1.4","103","103","CWQ_124(03.07.2025).pdf","WLAB","routine"
"47","Fish Hoek Beach Jager Walk","CS35","Recreational Node","False Bay","18.432959","-34.141276","True","CS35","2025-07-03","10:25:00","2025-07-05","1.4","1 330","1330","CWQ_124(03.07.2025).pdf","WLAB","routine"
"48","Fish Hoek Beach","CS41","Recreational Node","False Bay","18.43275173","-34.1394567","True","CS41","2025-07-03","10:18:00","2025-07-05","1.4","810","810","CWQ_124(03.07.2025).pdf","WLAB","routine"
"49","Clovelly Beach","XCS17","Recreational Node","False Bay","18.43955","-34.13281667","True","XCS17","2025-07-03","10:08:00","2025-07-05","1.4","1 490","1490","CWQ_124(03.07.2025).pdf","WLAB","routine"
"50","Woolley's Tidal Pool","CS42","Recreational Node","False Bay","18.44543279","-34.13273121","True","CS42","2025-07-03","10:02:00","2025-07-05","1.4","268","268","CWQ_124(03.07.2025).pdf","WLAB","routine"
"58","Sunrise Beach Parking Area","CS07","Recreational Node","False Bay","18.482613","-34.104809","True","CS07","2025-07-03","08:57:00","2025-07-05","1.4","1 110","1110","CWQ_124(03.07.2025).pdf","WLAB","routine"
"44","Simons Town Long Beach","XCS14","Recreational Node","False Bay","18.42655556","-34.18741667","True","XCS14","2025-07-03","10:47:00","2025-07-05","1.4","320","320","CWQ_124(03.07.2025).pdf","WLAB","routine"
"24","Camps Bay Central","CN41","Recreational Node","Atlantic","18.37711225","-33.95092422","True","CN41","2025-07-03","08:20:00","2025-07-05","1.4","41","41","Infinity Environmental AD.180.pdf","WLAB","daily"
"68","Strand Lifesaving Club","XCS26","Recreational Node","False Bay","18.81753333","-34.10616667","True","XCS26","2025-07-03","09:30:00","2025-07-05","3.6","390","390","Oelofse G.118.pdf","WLAB","daily"
"22","Glen Beach","CN31","Recreational Node","Atlantic","18.377192","-33.947056","True","CN31","2025-07-03","08:25:00","2025-07-05","1.4","62","62","Infinity Environmental AD.180.pdf","WLAB","daily"
"25","Camps Bay South","CN11","Recreational Node","Atlantic","18.37566417","-33.95262556","True","CN11","2025-07-03","08:15:00","2025-07-05","1.4","50","50","Infinity Environmental AD.180.pdf","WLAB","daily"
"67","Strand Pipe Surfing","XCS34","Recreational Node","False Bay","18.81328622","-34.10333837","True","XCS34","2025-07-03","09:39:00","2025-07-05","3.6","530","530","Oelofse G.118.pdf","WLAB","daily"
"64","Monwabisi Tidal Pool","XCS18","Recreational Node","False Bay","18.68863333","-34.07313333","True","XCS18","2025-07-02",NULL,"2025-07-04","3.2","49","49","CWQ_123(02.07.2025).pdf","WLAB","routine"
"63","Mnandi Beach","CS19","Recreational Node","False Bay","18.622209","-34.075324","True","CS19","2025-07-02",NULL,"2025-07-04","3.2","220","220","CWQ_123(02.07.2025).pdf","WLAB","routine"
"73","Kogel Bay Beach","XCS09","Recreational Node","False Bay","18.85032","-34.236774","True","XCS09","2025-07-02","10:35:00","2025-07-04","3.2","3","3","CWQ_122(02.07.2025).pdf","WLAB","routine"
"102","Strand Pavillion Jetty","XCS28","Coastal Monitoring Point","False Bay","18.827206","-34.118619","True","XCS28","2025-07-02","11:56:00","2025-07-04","3.2","1 390","1390","CWQ_122(02.07.2025).pdf","WLAB","routine"
"103","Strand Adjacent to Indoor Swimming Pool","XCS35","Coastal Monitoring Point","False Bay","18.82886575","-34.11996962","True","XCS35","2025-07-02","11:59:00","2025-07-04","3.2","1 030","1030","CWQ_122(02.07.2025).pdf","WLAB","routine"
"99","Strand Stormwater Outlet Murray Street & Beach Road","CS30","Coastal Monitoring Point","False Bay","18.823639","-34.116424","True","CS30","2025-07-02","12:13:00","2025-07-04","3.2","25","25","CWQ_122(02.07.2025).pdf","WLAB","routine"
"101","Strand Beach Between Melkbaai and Da Gama Street","CS31","Coastal Monitoring Point","False Bay","18.81975","-34.1093611","True","CS31","2025-07-02","12:17:00","2025-07-04","3.2","33","33","CWQ_122(02.07.2025).pdf","WLAB","routine"
"100","Strand Opposite Burnard Street","XCS27","Coastal Monitoring Point","False Bay","18.821155","-34.111664","True","XCS27","2025-07-02","12:23:00","2025-07-04","3.2","39","39","CWQ_122(02.07.2025).pdf","WLAB","routine"
"68","Strand Lifesaving Club","XCS26","Recreational Node","False Bay","18.81753333","-34.10616667","True","XCS26","2025-07-02","12:25:00","2025-07-04","3.2","34","34","CWQ_122(02.07.2025).pdf","WLAB","routine"
"98","Strand Adjacent to Water Slides","CS32","Coastal Monitoring Point","False Bay","18.814436","-34.105044","True","CS32","2025-07-02","12:34:00","2025-07-04","3.2","44","44","CWQ_122(02.07.2025).pdf","WLAB","routine"
"67","Strand Pipe Surfing","XCS34","Recreational Node","False Bay","18.81328622","-34.10333837","True","XCS34","2025-07-02","12:40:00","2025-07-04","3.2","126","126","CWQ_122(02.07.2025).pdf","WLAB","routine"
"97","Strand MPA","CS33","Coastal Monitoring Point","False Bay","18.806914","-34.098667","True","CS33","2025-07-02","12:45:00","2025-07-04","3.2","282","282","CWQ_122(02.07.2025).pdf","WLAB","routine"
"66","Macassar Beach","XCS19","Recreational Node","False Bay","18.749314","-34.078065","True","XCS19","2025-07-02","13:08:00","2025-07-04","3.2","36","36","CWQ_122(02.07.2025).pdf","WLAB","routine"
"72","Gordons Bay Bikini Beach","XCS08","Recreational Node","False Bay","18.85868333","-34.16555","True","XCS08","2025-07-02","10:54:00","2025-07-04","3.2","14","14","CWQ_122(02.07.2025).pdf","WLAB","routine"
"107","Gordons Bay Harbour Center","XCS07","Coastal Monitoring Point","False Bay","18.85915","-34.16485","True","XCS07","2025-07-02","10:59:00","2025-07-04","3.2","151","151","CWQ_122(02.07.2025).pdf","WLAB","routine"
"90","Sonwabe Parking Area","CS10","Coastal Monitoring Point","False Bay","18.51144","-34.096455","True","CS10","2025-07-02",NULL,"2025-07-04","3.2","44","44","CWQ_123(02.07.2025).pdf","WLAB","routine"
"71","Gordons Bay Milkwoods","CS29","Recreational Node","False Bay","18.865056","-34.161691","True","CS29","2025-07-02","11:06:00","2025-07-04","3.2","46","46","CWQ_122(02.07.2025).pdf","WLAB","routine"
"70","Gordons Bay East Beach","XCS05","Recreational Node","False Bay","18.86756667","-34.160632","True","XCS05","2025-07-02","11:10:00","2025-07-04","3.2","19","19","CWQ_122(02.07.2025).pdf","WLAB","routine"
"93","Mitchells Plain WWED","CS18","Coastal Monitoring Point","False Bay","18.59825","-34.07793333","True","CS18","2025-07-02",NULL,"2025-07-04","3.2","61","61","CWQ_123(02.07.2025).pdf","WLAB","routine"
"105","Gordon's Bay Sir Lowry's Pass River","XCS04","Coastal Monitoring Point","False Bay","18.866507","-34.157527","True","XCS04","2025-07-02","11:18:00","2025-07-04","3.2","33","33","CWQ_122(02.07.2025).pdf","WLAB","routine"
"106","Gordons Bay Harbour Island","XCS23","Coastal Monitoring Point","False Bay","18.857723","-34.152222","True","XCS23","2025-07-02","11:24:00","2025-07-04","3.2","2 310","2310","CWQ_122(02.07.2025).pdf","WLAB","routine"
"104","Gordons Bay WWTW","XCS01","Coastal Monitoring Point","False Bay","18.85288333","-34.14705","True","XCS01","2025-07-02","11:33:00","2025-07-04","3.2","870","870","CWQ_122(02.07.2025).pdf","WLAB","routine"
"69","Strand Harmonie Park Jetty","XCS29","Recreational Node","False Bay","18.84579525","-34.13991145","True","XCS29","2025-07-02","11:43:00","2025-07-04","3.2","16","16","CWQ_122(02.07.2025).pdf","WLAB","routine"
"65","Monwabisi Beach","XCS30","Recreational Node","False Bay","18.68996667","-34.07284056","True","XCS30","2025-07-02",NULL,"2025-07-04","3.2","79","79","CWQ_123(02.07.2025).pdf","WLAB","routine"
"60","Strandfontein Tidal Pool","CS17","Recreational Node","False Bay","18.55351667","-34.08911667","True","CS17","2025-07-02",NULL,"2025-07-04","3.2","8","8","CWQ_123(02.07.2025).pdf","WLAB","routine"
"91","Strandfontein Point West Of Tidal Pool","CS13","Coastal Monitoring Point","False Bay","18.54887567","-34.0888532","True","CS13","2025-07-02",NULL,"2025-07-04","3.2","31","31","CWQ_123(02.07.2025).pdf","WLAB","routine"
"92","Lukanon Drive Near WW Pump Station","CS14","Coastal Monitoring Point","False Bay","18.58851667","-34.07981667","True","CS14","2025-07-02",NULL,"2025-07-04","3.2","52","52","CWQ_123(02.07.2025).pdf","WLAB","routine"
"96","Mnandi Beach West Of Lifesaving Tower","CS15","Coastal Monitoring Point","False Bay","18.61866667","-34.07538333","True","CS15","2025-07-02",NULL,"2025-07-04","3.2","197","197","CWQ_123(02.07.2025).pdf","WLAB","routine"
"89","Lifebox 23","CS09","Coastal Monitoring Point","False Bay","18.50106667","-34.09868333","True","CS09","2025-07-02",NULL,"2025-07-04","3.2","46","46","CWQ_123(02.07.2025).pdf","WLAB","routine"
"59","Ribbon Road Parking Area","CS11","Recreational Node","False Bay","18.523396","-34.093636","True","CS11","2025-07-02",NULL,"2025-07-04","3.2","49","49","CWQ_123(02.07.2025).pdf","WLAB","routine"
"94","Mitchells Plain Stormwater Discharge East","CS23E","Coastal Monitoring Point","False Bay","18.61221667","-34.07566667","True","CS23E","2025-07-02",NULL,"2025-07-04","3.2","96","96","CWQ_123(02.07.2025).pdf","WLAB","routine"
"95","Mitchells Plain Stormwater Discharge West","CS23W","Coastal Monitoring Point","False Bay","18.610164","-34.076124","True","CS23W","2025-07-02",NULL,"2025-07-04","3.2","119","119","CWQ_123(02.07.2025).pdf","WLAB","routine"
"61","Strandfontein Beach","CS45","Recreational Node","False Bay","18.55744323","-34.08733837","True","CS45","2025-07-02",NULL,"2025-07-04","3.2","38","38","CWQ_123(02.07.2025).pdf","WLAB","routine"
"62","Blue Waters Resort","CS46","Recreational Node","False Bay","18.58049079","-34.08177896","True","CS46","2025-07-02",NULL,"2025-07-04","3.2","59","59","CWQ_123(02.07.2025).pdf","WLAB","routine"
"25","Camps Bay South","CN11","Recreational Node","Atlantic","18.37566417","-33.95262556","True","CN11","2025-07-02","08:56:00","2025-07-04","3.2","59","59","Infinity Environmental AD.179.pdf","WLAB","daily"
"67","Strand Pipe Surfing","XCS34","Recreational Node","False Bay","18.81328622","-34.10333837","True","XCS34","2025-07-02","09:31:00","2025-07-04","3.6","123","123","Oelofse G.117.pdf","WLAB","daily"
"68","Strand Lifesaving Club","XCS26","Recreational Node","False Bay","18.81753333","-34.10616667","True","XCS26","2025-07-02","09:22:00","2025-07-04","3.6","73","73","Oelofse G.117.pdf","WLAB","daily"
"24","Camps Bay Central","CN41","Recreational Node","Atlantic","18.37711225","-33.95092422","True","CN41","2025-07-02","09:06:00","2025-07-04","3.2","46","46","Infinity Environmental AD.179.pdf","WLAB","daily"
"22","Glen Beach","CN31","Recreational Node","Atlantic","18.377192","-33.947056","True","CN31","2025-07-02","09:50:00","2025-07-04","3.2","93","93","Infinity Environmental AD.179.pdf","WLAB","daily"
"80","Maidens Cove Tidal Pool West Outside","CN19O","Coastal Monitoring Point","Atlantic","18.37331667","-33.94483333","True","CN19O","2025-07-01","11:05:00","2025-07-03","4.6","9","9","CWQ_121(01.07.2025).pdf","WLAB","routine"
"24","Camps Bay Central","CN41","Recreational Node","Atlantic","18.37711225","-33.95092422","True","CN41","2025-07-01","10:37:00","2025-07-03","4.6","4","4","CWQ_121(01.07.2025).pdf","WLAB","routine"
"25","Camps Bay South","CN11","Recreational Node","Atlantic","18.37566417","-33.95262556","True","CN11","2025-07-01","10:22:00","2025-07-03","4.6","16","16","Infinity Environmental AD.178(FB).pdf","WLAB","routine"
"26","Camps Bay Tidal Pool","CN12A","Recreational Node","Atlantic","18.375176","-33.955052","True","CN12A","2025-07-01","10:09:00","2025-07-03","4.6","5","5","CWQ_121(01.07.2025).pdf","WLAB","routine"
"27","Barley Bay","CN14","Recreational Node","Atlantic","18.37688167","-33.95765444","True","CN14","2025-07-01","09:58:00","2025-07-03","4.6","9","9","CWQ_121(01.07.2025).pdf","WLAB","routine"
"21","Maidens Cove Tidal Pool East Inside","CN20I","Recreational Node","Atlantic","18.374671","-33.945203","True","CN20I","2025-07-01","11:00:00","2025-07-03","4.6","20","20","CWQ_121(01.07.2025).pdf","WLAB","routine"
"19","Maidens Cove North Sandy Cove","CN10","Recreational Node","Atlantic","18.37227917","-33.94339361","True","CN10","2025-07-01","11:02:00","2025-07-03","4.6","4","4","CWQ_121(01.07.2025).pdf","WLAB","routine"
"20","Maidens Cove Tidal Pool West Inside","CN19I","Recreational Node","Atlantic","18.37335","-33.944889","True","CN19I","2025-07-01","11:04:00","2025-07-03","4.6","2","2","CWQ_121(01.07.2025).pdf","WLAB","routine"
"23","Camps Bay North","CN30","Recreational Node","Atlantic","18.377445","-33.948847","True","CN30","2025-07-01","10:43:00","2025-07-03","4.6","6","6","CWQ_121(01.07.2025).pdf","WLAB","routine"
"22","Glen Beach","CN31","Recreational Node","Atlantic","18.377192","-33.947056","True","CN31","2025-07-01","10:51:00","2025-07-03","4.6","25","25","CWQ_121(01.07.2025).pdf","WLAB","routine"
"34","Hout Bay Chapmans Peak","XCN10","Recreational Node","Atlantic","18.3602","-34.04781667","True","XCN10","2025-07-01","08:32:00","2025-07-03","4.6","82","82","CWQ_121(01.07.2025).pdf","WLAB","routine"
"81","Camps Bay Tidal Pool Outside","CN12O","Coastal Monitoring Point","Atlantic","18.3751025","-33.95513444","True","CN12O","2025-07-01","10:11:00","2025-07-03","4.6","ND","0","CWQ_121(01.07.2025).pdf","WLAB","routine"
"18","Clifton Fourth Beach","CN09","Recreational Node","Atlantic","18.374417","-33.940619","True","CN09","2025-07-01","11:16:00","2025-07-03","4.6","12","12","CWQ_121(01.07.2025).pdf","WLAB","routine"
"17","Clifton Second Beach","CN42","Recreational Node","Atlantic","18.376607","-33.937505","True","CN42","2025-07-01","11:27:00","2025-07-03","4.6","2","2","CWQ_121(01.07.2025).pdf","WLAB","routine"
"33","Hout Bay Mariners Wharf","HB13","Recreational Node","Atlantic","18.34918168","-34.04741935","True","HB13","2025-07-01","08:45:00","2025-07-03","4.6","78","78","CWQ_121(01.07.2025).pdf","WLAB","routine"
"82","Logies Bay","CN38","Coastal Monitoring Point","Atlantic","18.34164296","-34.00508097","True","CN38","2025-07-01","09:11:00","2025-07-03","4.6","3","3","CWQ_121(01.07.2025).pdf","WLAB","routine"
"32","Llandudno","XCN03","Recreational Node","Atlantic","18.34031","-34.007816","True","XCN03","2025-07-01","09:19:00","2025-07-03","4.6","31","31","CWQ_121(01.07.2025).pdf","WLAB","routine"
"30","Cosy Bay","CN39","Recreational Node","Atlantic","18.36154654","-33.98211535","True","CN39","2025-07-01","09:37:00","2025-07-03","4.6","4","4","CWQ_121(01.07.2025).pdf","WLAB","routine"
"28","Beta Beach","CN40","Recreational Node","Atlantic","18.37450268","-33.95956009","True","CN40","2025-07-01","09:45:00","2025-07-03","4.6","9","9","CWQ_121(01.07.2025).pdf","WLAB","routine"
"29","Bakoven Beach","CN21","Recreational Node","Atlantic","18.37306972","-33.96049972","True","CN21","2025-07-01","09:50:00","2025-07-03","4.6","20","20","CWQ_121(01.07.2025).pdf","WLAB","routine"
"25","Camps Bay South","CN11","Recreational Node","Atlantic","18.37566417","-33.95262556","True","CN11","2025-07-01","08:05:00","2025-07-03","4.6","43","43","Infinity Environmental AD.177.pdf","WLAB","daily"
"67","Strand Pipe Surfing","XCS34","Recreational Node","False Bay","18.81328622","-34.10333837","True","XCS34","2025-07-01","09:21:00","2025-07-03","2.5","50","50","Oelofse G.116.pdf","WLAB","daily"
"22","Glen Beach","CN31","Recreational Node","Atlantic","18.377192","-33.947056","True","CN31","2025-07-01","08:17:00","2025-07-03","4.6","66","66","Infinity Environmental AD.177.pdf","WLAB","daily"
"24","Camps Bay Central","CN41","Recreational Node","Atlantic","18.37711225","-33.95092422","True","CN41","2025-07-01","08:10:00","2025-07-03","4.6","32","32","Infinity Environmental AD.177.pdf","WLAB","daily"
"68","Strand Lifesaving Club","XCS26","Recreational Node","False Bay","18.81753333","-34.10616667","True","XCS26","2025-07-01","09:13:00","2025-07-03","2.5","42","42","Oelofse G.116.pdf","WLAB","daily"
"6","Tableview","XCN06","Recreational Node","Atlantic","18.4761","-33.82303333","True","XCN06","2025-06-30","10:35:00","2025-07-02","4.1","2","2","CWQ_120(30.06.2025).pdf","WLAB","routine"
"79","Saunders Rocks Sandy Beach","CN16A","Coastal Monitoring Point","Atlantic","18.377242","-33.923944","True","CN16A","2025-06-30","11:37:00","2025-07-02","4.1","18","18","CWQ_120(30.06.2025).pdf","WLAB","routine"
"15","Saunders Rocks Tidal Pool Outside","CN16O","Recreational Node","Atlantic","18.377186","-33.924225","True","CN16O","2025-06-30","11:36:00","2025-07-02","4.1","53","53","CWQ_120(30.06.2025).pdf","WLAB","routine"
"16","Saunders Rocks Tidal Pool","CN16I","Recreational Node","Atlantic","18.377048","-33.924335","True","CN16I","2025-06-30","11:35:00","2025-07-02","4.1","3","3","CWQ_120(30.06.2025).pdf","WLAB","routine"
"8","Lagoon Beach","CN22","Recreational Node","Atlantic","18.481274","-33.892047","True","CN22","2025-06-30","11:05:00","2025-07-02","4.1","231","231","CWQ_120(30.06.2025).pdf","WLAB","routine"
"7","Milnerton Lighthouse","XCN04","Recreational Node","Atlantic","18.48665","-33.88135","True","XCN04","2025-06-30","10:55:00","2025-07-02","4.1","43","43","CWQ_120(30.06.2025).pdf","WLAB","routine"
"4","Big Bay","XCN12","Recreational Node","Atlantic","18.45666667","-33.7938","True","XCN12","2025-06-30","09:51:00","2025-07-02","4.1","6","6","Infinity Environmental AD.176(FB).pdf","WLAB","routine"
"5","Small Bay","CN37","Recreational Node","Atlantic","18.45822252","-33.79914844","True","CN37","2025-06-30","10:24:00","2025-07-02","4.1","16","16","CWQ_120(30.06.2025).pdf","WLAB","routine"
"74","Blouberg Big Bay Near STW Drain","XCN13","Coastal Monitoring Point","Atlantic","18.45003217","-33.78464061","True","XCN13","2025-06-30","09:56:00","2025-07-02","4.1","2","2","CWQ_120(30.06.2025).pdf","WLAB","routine"
"9","Mouille Point Beach","CN04","Recreational Node","Atlantic","18.40758333","-33.89918333","True","CN04","2025-06-30","12:42:00","2025-07-02","4.1","29","29","CWQ_120(30.06.2025).pdf","WLAB","routine"
"75","Green Point Pump Station","CN05","Coastal Monitoring Point","Atlantic","18.39882","-33.900318","True","CN05","2025-06-30","12:30:00","2025-07-02","4.1","25","25","CWQ_120(30.06.2025).pdf","WLAB","routine"
"76","Three Anchor Bay NW Rocks","CN06","Coastal Monitoring Point","Atlantic","18.39745","-33.90551667","True","CN06","2025-06-30","12:22:00","2025-07-02","4.1","98","98","CWQ_120(30.06.2025).pdf","WLAB","routine"
"10","Three Anchor Bay Beach","CN36","Recreational Node","Atlantic","18.39798198","-33.90611137","True","CN36","2025-06-30","12:21:00","2025-07-02","4.1","91","91","CWQ_120(30.06.2025).pdf","WLAB","routine"
"11","Rocklands Beach","CN06C","Recreational Node","Atlantic","18.39336667","-33.90851667","True","CN06C","2025-06-30","12:14:00","2025-07-02","4.1","34","34","CWQ_120(30.06.2025).pdf","WLAB","routine"
"77","Milton Beach Tidal Pool Outside","CN18O","Coastal Monitoring Point","Atlantic","18.38618333","-33.91453333","True","CN18O","2025-06-30","12:05:00","2025-07-02","4.1","26","26","CWQ_120(30.06.2025).pdf","WLAB","routine"
"12","Milton Beach Tidal Pool","CN18I","Recreational Node","Atlantic","18.386189","-33.914455","True","CN18I","2025-06-30","12:04:00","2025-07-02","4.1","2","2","CWQ_120(30.06.2025).pdf","WLAB","routine"
"78","Sunset Beach","CN08O","Coastal Monitoring Point","Atlantic","18.38075","-33.91991667","True","CN08O","2025-06-30","11:51:00","2025-07-02","4.1","13","13","CWQ_120(30.06.2025).pdf","WLAB","routine"
"13","Queen's Beach Tidal Pool","CN34","Recreational Node","Atlantic","18.37869426","-33.92108985","True","CN34","2025-06-30","11:46:00","2025-07-02","4.1","11","11","CWQ_120(30.06.2025).pdf","WLAB","routine"
"14","Queen's Beach Gully","CN35","Recreational Node","Atlantic","18.37825668","-33.92135956","True","CN35","2025-06-30","11:44:00","2025-07-02","4.1","13","13","CWQ_120(30.06.2025).pdf","WLAB","routine"
"3","Melkbosstrand","XCN07","Recreational Node","Atlantic","18.44006","-33.726691","True","XCN07","2025-06-30","09:37:00","2025-07-02","4.1","11","11","CWQ_120(30.06.2025).pdf","WLAB","routine"
"22","Glen Beach","CN31","Recreational Node","Atlantic","18.377192","-33.947056","True","CN31","2025-06-30","09:15:00","2025-07-02","4.1","25","25","Infinity Environmental AD.175.pdf","WLAB","daily"
"67","Strand Pipe Surfing","XCS34","Recreational Node","False Bay","18.81328622","-34.10333837","True","XCS34","2025-06-30","09:23:00","2025-07-02","2.8","98","98","Oelofse G.115.pdf","WLAB","daily"
"68","Strand Lifesaving Club","XCS26","Recreational Node","False Bay","18.81753333","-34.10616667","True","XCS26","2025-06-30","09:15:00","2025-07-02","2.8","106","106","Oelofse G.115.pdf","WLAB","daily"
"25","Camps Bay South","CN11","Recreational Node","Atlantic","18.37566417","-33.95262556","True","CN11","2025-06-30","08:06:00","2025-07-02","4.1","18","18","Infinity Environmental AD.175.pdf","WLAB","daily"
"24","Camps Bay Central","CN41","Recreational Node","Atlantic","18.37711225","-33.95092422","True","CN41","2025-06-30","08:11:00","2025-07-02","4.1","12","12","Infinity Environmental AD.175.pdf","WLAB","daily"
"67","Strand Pipe Surfing","XCS34","Recreational Node","False Bay","18.81328622","-34.10333837","True","XCS34","2025-06-27","12:07:00","2025-06-29","4.8","1 260","1260","CWQ_119(27.06.2025).pdf","WLAB","routine"
"73","Kogel Bay Beach","XCS09","Recreational Node","False Bay","18.85032","-34.236774","True","XCS09","2025-06-27","09:40:00","2025-06-29","4.8","4","4","CWQ_119(27.06.2025).pdf","WLAB","routine"
"64","Monwabisi Tidal Pool","XCS18","Recreational Node","False Bay","18.68863333","-34.07313333","True","XCS18","2025-06-27","12:44:00","2025-06-29","4.8","39","39","CWQ_119(27.06.2025).pdf","WLAB","routine"
"68","Strand Lifesaving Club","XCS26","Recreational Node","False Bay","18.81753333","-34.10616667","True","XCS26","2025-06-27","11:45:00","2025-06-29","4.8","560","560","CWQ_119(27.06.2025).pdf","WLAB","routine"
"101","Strand Beach Between Melkbaai and Da Gama Street","CS31","Coastal Monitoring Point","False Bay","18.81975","-34.1093611","True","CS31","2025-06-27","11:27:00","2025-06-29","4.8","780","780","CWQ_119(27.06.2025).pdf","WLAB","routine"
"69","Strand Harmonie Park Jetty","XCS29","Recreational Node","False Bay","18.84579525","-34.13991145","True","XCS29","2025-06-27","10:46:00","2025-06-29","4.8","1 220","1220","CWQ_119(27.06.2025).pdf","WLAB","routine"
"70","Gordons Bay East Beach","XCS05","Recreational Node","False Bay","18.86756667","-34.160632","True","XCS05","2025-06-27","10:30:00","2025-06-29","4.8","950","950","CWQ_119(27.06.2025).pdf","WLAB","routine"
"72","Gordons Bay Bikini Beach","XCS08","Recreational Node","False Bay","18.85868333","-34.16555","True","XCS08","2025-06-27","10:11:00","2025-06-29","4.8","640","640","CWQ_119(27.06.2025).pdf","WLAB","routine"
"71","Gordons Bay Milkwoods","CS29","Recreational Node","False Bay","18.865056","-34.161691","True","CS29","2025-06-27","10:21:00","2025-06-29","4.8","1 390","1390","CWQ_119(27.06.2025).pdf","WLAB","routine"
"60","Strandfontein Tidal Pool","CS17","Recreational Node","False Bay","18.55351667","-34.08911667","True","CS17","2025-06-27","13:30:00","2025-06-29","4.8","33","33","CWQ_119(27.06.2025).pdf","WLAB","routine"
"61","Strandfontein Beach","CS45","Recreational Node","False Bay","18.55744323","-34.08733837","True","CS45","2025-06-27","13:15:00","2025-06-29","4.8","37","37","CWQ_119(27.06.2025).pdf","WLAB","routine"
"63","Mnandi Beach","CS19","Recreational Node","False Bay","18.622209","-34.075324","True","CS19","2025-06-27","13:05:00","2025-06-29","4.8","175","175","CWQ_119(27.06.2025).pdf","WLAB","routine"
"98","Strand Adjacent to Water Slides","CS32","Coastal Monitoring Point","False Bay","18.814436","-34.105044","True","CS32","2025-06-27","11:46:00","2025-06-29","4.8","1 100","1100","CWQ_119(27.06.2025).pdf","WLAB","routine"
"25","Camps Bay South","CN11","Recreational Node","Atlantic","18.37566417","-33.95262556","True","CN11","2025-06-27","08:10:00","2025-06-29","1.1","36","36","Infinity Environmental AD.174.pdf","WLAB","daily"
"68","Strand Lifesaving Club","XCS26","Recreational Node","False Bay","18.81753333","-34.10616667","True","XCS26","2025-06-27","09:20:00","2025-06-29","3","2 200","2200","Oelofse G.114.pdf","WLAB","daily"
"67","Strand Pipe Surfing","XCS34","Recreational Node","False Bay","18.81328622","-34.10333837","True","XCS34","2025-06-27","09:32:00","2025-06-29","3","2 960","2960","Oelofse G.114.pdf","WLAB","daily"
"24","Camps Bay Central","CN41","Recreational Node","Atlantic","18.37711225","-33.95092422","True","CN41","2025-06-27","08:15:00","2025-06-29","1.1","27","27","Infinity Environmental AD.174.pdf","WLAB","daily"
"22","Glen Beach","CN31","Recreational Node","Atlantic","18.377192","-33.947056","True","CN31","2025-06-27","08:23:00","2025-06-29","1.1","96","96","Infinity Environmental AD.174.pdf","WLAB","daily"
"48","Fish Hoek Beach","CS41","Recreational Node","False Bay","18.43275173","-34.1394567","True","CS41","2025-06-26","10:55:00","2025-06-28","1.6","890","890","CWQ_118(26.06.2025).pdf","WLAB","routine"
"57","Muizenberg Pavilion","CS16","Recreational Node","False Bay","18.472645","-34.107968","True","CS16","2025-06-26","10:06:00","2025-06-28","1.6","2 480","2480","CWQ_118(26.06.2025).pdf","WLAB","routine"
"45","Glencairn Tidal Pool","CS38","Recreational Node","False Bay","18.432068","-34.162559","True","CS38","2025-06-26","11:18:00","2025-06-28","1.6","165","165","CWQ_118(26.06.2025).pdf","WLAB","routine"
"44","Simons Town Long Beach","XCS14","Recreational Node","False Bay","18.42655556","-34.18741667","True","XCS14","2025-06-26","11:25:00","2025-06-28","1.6","232","232","CWQ_118(26.06.2025).pdf","WLAB","routine"
"43","Seaforth Beach","XCS13","Recreational Node","False Bay","18.44663889","-34.19394444","True","XCS13","2025-06-26","11:35:00","2025-06-28","1.6","770","770","CWQ_118(26.06.2025).pdf","WLAB","routine"
"36","Long Beach Kommetjie","XCN02","Recreational Node","Atlantic","18.32828889","-34.13676667","True","XCN02","2025-06-26","12:13:00","2025-06-28","1.6","170","170","CWQ_118(26.06.2025).pdf","WLAB","routine"
"56","Muizenberg Surfers Corner","CS34","Recreational Node","False Bay","18.470834","-34.108983","True","CS34","2025-06-26","10:16:00","2025-06-28","1.6","2 730","2730","CWQ_118(26.06.2025).pdf","WLAB","routine"
"55","St James Tidal Pool","CS04","Recreational Node","False Bay","18.459533","-34.118862","True","CS04","2025-06-26","10:26:00","2025-06-28","1.6","54","54","CWQ_118(26.06.2025).pdf","WLAB","routine"
"53","Dalebrook Tidal Pool","CS03","Recreational Node","False Bay","18.45291667","-34.12403333","True","CS03","2025-06-26","10:30:00","2025-06-28","1.6","109","109","CWQ_118(26.06.2025).pdf","WLAB","routine"
"54","Dangers Beach","CS44","Recreational Node","False Bay","18.4561023","-34.12143007","True","CS44","2025-06-26","10:31:00","2025-06-28","1.6","159","159","CWQ_118(26.06.2025).pdf","WLAB","routine"
"52","Kalk Bay Tidal Pool","CS02","Recreational Node","False Bay","18.4506","-34.12638333","True","CS02","2025-06-26","10:43:00","2025-06-28","1.6","135","135","CWQ_118(26.06.2025).pdf","WLAB","routine"
"46","Glencairn Beach","XCS15","Recreational Node","False Bay","18.43218333","-34.15981667","True","XCS15","2025-06-26","11:11:00","2025-06-28","1.6","137","137","CWQ_118(26.06.2025).pdf","WLAB","routine"
"47","Fish Hoek Beach Jager Walk","CS35","Recreational Node","False Bay","18.432959","-34.141276","True","CS35","2025-06-26","10:58:00","2025-06-28","1.6","196","196","CWQ_118(26.06.2025).pdf","WLAB","routine"
"22","Glen Beach","CN31","Recreational Node","Atlantic","18.377192","-33.947056","True","CN31","2025-06-26","08:20:00","2025-06-28","1.6","1 340","1340","Infinity Environmental AD.173.pdf","WLAB","daily"
"68","Strand Lifesaving Club","XCS26","Recreational Node","False Bay","18.81753333","-34.10616667","True","XCS26","2025-06-26","09:00:00","2025-06-28","4.4","4 400","4400","Oelofse G.113.pdf","WLAB","daily"
"67","Strand Pipe Surfing","XCS34","Recreational Node","False Bay","18.81328622","-34.10333837","True","XCS34","2025-06-26","09:12:00","2025-06-28","4.4","9 200","9200","Oelofse G.113.pdf","WLAB","daily"
"24","Camps Bay Central","CN41","Recreational Node","Atlantic","18.37711225","-33.95092422","True","CN41","2025-06-26","08:11:00","2025-06-28","1.6","203","203","Infinity Environmental AD.173.pdf","WLAB","daily"
"25","Camps Bay South","CN11","Recreational Node","Atlantic","18.37566417","-33.95262556","True","CN11","2025-06-26","08:05:00","2025-06-28","1.6","246","246","Infinity Environmental AD.173.pdf","WLAB","daily"
"68","Strand Lifesaving Club","XCS26","Recreational Node","False Bay","18.81753333","-34.10616667","True","XCS26","2025-06-25","08:58:00","2025-06-27","4.6","165","165","Oelofse G.112.pdf","WLAB","daily"
"24","Camps Bay Central","CN41","Recreational Node","Atlantic","18.37711225","-33.95092422","True","CN41","2025-06-25","08:06:00","2025-06-27","2.2","8","8","Infinity Environmental AD.172.pdf","WLAB","daily"
"22","Glen Beach","CN31","Recreational Node","Atlantic","18.377192","-33.947056","True","CN31","2025-06-25","08:20:00","2025-06-27","2.2","10","10","Infinity Environmental AD.172.pdf","WLAB","daily"
"25","Camps Bay South","CN11","Recreational Node","Atlantic","18.37566417","-33.95262556","True","CN11","2025-06-25","08:00:00","2025-06-27","2.2","14","14","Infinity Environmental AD.172.pdf","WLAB","daily"
"67","Strand Pipe Surfing","XCS34","Recreational Node","False Bay","18.81328622","-34.10333837","True","XCS34","2025-06-25","09:11:00","2025-06-27","4.6","260","260","Oelofse G.112.pdf","WLAB","daily"
"26","Camps Bay Tidal Pool","CN12A","Recreational Node","Atlantic","18.375176","-33.955052","True","CN12A","2025-06-24","10:29:00","2025-06-26","2.8","62","62","CWQ_117(24.06.2025).pdf","WLAB","routine"
"34","Hout Bay Chapmans Peak","XCN10","Recreational Node","Atlantic","18.3602","-34.04781667","True","XCN10","2025-06-24","09:30:00","2025-06-26","2.8","269","269","CWQ_117(24.06.2025).pdf","WLAB","routine"
"23","Camps Bay North","CN30","Recreational Node","Atlantic","18.377445","-33.948847","True","CN30","2025-06-24","10:56:00","2025-06-26","2.8","5","5","CWQ_117(24.06.2025).pdf","WLAB","routine"
"22","Glen Beach","CN31","Recreational Node","Atlantic","18.377192","-33.947056","True","CN31","2025-06-24","10:59:00","2025-06-26","2.8","15","15","CWQ_117(24.06.2025).pdf","WLAB","routine"
"20","Maidens Cove Tidal Pool West Inside","CN19I","Recreational Node","Atlantic","18.37335","-33.944889","True","CN19I","2025-06-24","11:05:00","2025-06-26","2.8","19","19","CWQ_117(24.06.2025).pdf","WLAB","routine"
"19","Maidens Cove North Sandy Cove","CN10","Recreational Node","Atlantic","18.37227917","-33.94339361","True","CN10","2025-06-24","11:06:00","2025-06-26","2.8","40","40","CWQ_117(24.06.2025).pdf","WLAB","routine"
"18","Clifton Fourth Beach","CN09","Recreational Node","Atlantic","18.374417","-33.940619","True","CN09","2025-06-24","11:17:00","2025-06-26","2.8","44","44","CWQ_117(24.06.2025).pdf","WLAB","routine"
"33","Hout Bay Mariners Wharf","HB13","Recreational Node","Atlantic","18.34918168","-34.04741935","True","HB13","2025-06-24","09:41:00","2025-06-26","2.8","209","209","CWQ_117(24.06.2025).pdf","WLAB","routine"
"32","Llandudno","XCN03","Recreational Node","Atlantic","18.34031","-34.007816","True","XCN03","2025-06-24","09:57:00","2025-06-26","2.8","14","14","CWQ_117(24.06.2025).pdf","WLAB","routine"
"28","Beta Beach","CN40","Recreational Node","Atlantic","18.37450268","-33.95956009","True","CN40","2025-06-24","10:15:00","2025-06-26","2.8","4","4","CWQ_117(24.06.2025).pdf","WLAB","routine"
"29","Bakoven Beach","CN21","Recreational Node","Atlantic","18.37306972","-33.96049972","True","CN21","2025-06-24","10:18:00","2025-06-26","2.8","232","232","CWQ_117(24.06.2025).pdf","WLAB","routine"
"81","Camps Bay Tidal Pool Outside","CN12O","Coastal Monitoring Point","Atlantic","18.3751025","-33.95513444","True","CN12O","2025-06-24","10:30:00","2025-06-26","2.8","21","21","CWQ_117(24.06.2025).pdf","WLAB","routine"
"25","Camps Bay South","CN11","Recreational Node","Atlantic","18.37566417","-33.95262556","True","CN11","2025-06-24","10:44:00","2025-06-26","2.8","34","34","CWQ_117(24.06.2025).pdf","WLAB","routine"
"24","Camps Bay Central","CN41","Recreational Node","Atlantic","18.37711225","-33.95092422","True","CN41","2025-06-24","10:48:00","2025-06-26","2.8","13","13","CWQ_117(24.06.2025).pdf","WLAB","routine"
"22","Glen Beach","CN31","Recreational Node","Atlantic","18.377192","-33.947056","True","CN31","2025-06-24","08:13:00","2025-06-26","2.8","20","20","Infinity Environmental AD.171.pdf","WLAB","daily"
"24","Camps Bay Central","CN41","Recreational Node","Atlantic","18.37711225","-33.95092422","True","CN41","2025-06-24","08:05:00","2025-06-26","2.8","23","23","Infinity Environmental AD.171.pdf","WLAB","daily"
"25","Camps Bay South","CN11","Recreational Node","Atlantic","18.37566417","-33.95262556","True","CN11","2025-06-24","08:00:00","2025-06-26","2.8","31","31","Infinity Environmental AD.171.pdf","WLAB","daily"
"68","Strand Lifesaving Club","XCS26","Recreational Node","False Bay","18.81753333","-34.10616667","True","XCS26","2025-06-24","08:56:00","2025-06-26","4.3","142","142","Oelofse G.111.pdf","WLAB","daily"
"67","Strand Pipe Surfing","XCS34","Recreational Node","False Bay","18.81328622","-34.10333837","True","XCS34","2025-06-24","09:07:00","2025-06-26","4.3","110","110","Oelofse G.111.pdf","WLAB","daily"
"1","Silwerstroomstrand Tidal Pool","XCN08","Recreational Node","Atlantic","18.36005","-33.59123333","True","XCN08","2025-06-23","09:43:00","2025-06-25","4.1","36","36","CWQ_116(23.06.2025).pdf","WLAB","routine"
"2","Silwerstroomstrand","XCN14","Recreational Node","Atlantic","18.359023","-33.588165","True","XCN14","2025-06-23","09:46:00","2025-06-25","4.1","18","18","CWQ_116(23.06.2025).pdf","WLAB","routine"
"75","Green Point Pump Station","CN05","Coastal Monitoring Point","Atlantic","18.39882","-33.900318","True","CN05","2025-06-23","12:00:00","2025-06-25","4.1","38","38","CWQ_116(23.06.2025).pdf","WLAB","routine"
"10","Three Anchor Bay Beach","CN36","Recreational Node","Atlantic","18.39798198","-33.90611137","True","CN36","2025-06-23","11:56:00","2025-06-25","4.1","142","142","CWQ_116(23.06.2025).pdf","WLAB","routine"
"12","Milton Beach Tidal Pool","CN18I","Recreational Node","Atlantic","18.386189","-33.914455","True","CN18I","2025-06-23","11:48:00","2025-06-25","4.1","32","32","CWQ_116(23.06.2025).pdf","WLAB","routine"
"15","Saunders Rocks Tidal Pool Outside","CN16O","Recreational Node","Atlantic","18.377186","-33.924225","True","CN16O","2025-06-23","11:38:00","2025-06-25","4.1","63","63","CWQ_116(23.06.2025).pdf","WLAB","routine"
"16","Saunders Rocks Tidal Pool","CN16I","Recreational Node","Atlantic","18.377048","-33.924335","True","CN16I","2025-06-23","11:37:00","2025-06-25","4.1","23","23","CWQ_116(23.06.2025).pdf","WLAB","routine"
"8","Lagoon Beach","CN22","Recreational Node","Atlantic","18.481274","-33.892047","True","CN22","2025-06-23","11:10:00","2025-06-25","4.1","950","950","CWQ_116(23.06.2025).pdf","WLAB","routine"
"7","Milnerton Lighthouse","XCN04","Recreational Node","Atlantic","18.48665","-33.88135","True","XCN04","2025-06-23","11:04:00","2025-06-25","4.1","23","23","CWQ_116(23.06.2025).pdf","WLAB","routine"
"6","Tableview","XCN06","Recreational Node","Atlantic","18.4761","-33.82303333","True","XCN06","2025-06-23","10:46:00","2025-06-25","4.1","11","11","CWQ_116(23.06.2025).pdf","WLAB","routine"
"5","Small Bay","CN37","Recreational Node","Atlantic","18.45822252","-33.79914844","True","CN37","2025-06-23","10:36:00","2025-06-25","4.1","24","24","CWQ_116(23.06.2025).pdf","WLAB","routine"
"4","Big Bay","XCN12","Recreational Node","Atlantic","18.45666667","-33.7938","True","XCN12","2025-06-23","10:27:00","2025-06-25","4.1","26","26","CWQ_116(23.06.2025).pdf","WLAB","routine"
"3","Melkbosstrand","XCN07","Recreational Node","Atlantic","18.44006","-33.726691","True","XCN07","2025-06-23","10:13:00","2025-06-25","4.1","61","61","CWQ_116(23.06.2025).pdf","WLAB","routine"
"24","Camps Bay Central","CN41","Recreational Node","Atlantic","18.37711225","-33.95092422","True","CN41","2025-06-23","08:13:00","2025-06-25","4.1","14","14","Infinity Environmental AD.170.pdf","WLAB","daily"
"25","Camps Bay South","CN11","Recreational Node","Atlantic","18.37566417","-33.95262556","True","CN11","2025-06-23","08:07:00","2025-06-25","4.1","10","10","Infinity Environmental AD.170.pdf","WLAB","daily"
"68","Strand Lifesaving Club","XCS26","Recreational Node","False Bay","18.81753333","-34.10616667","True","XCS26","2025-06-23","09:08:00","2025-06-25","4","258","258","Oelofse G.110.pdf","WLAB","daily"
"67","Strand Pipe Surfing","XCS34","Recreational Node","False Bay","18.81328622","-34.10333837","True","XCS34","2025-06-23","09:19:00","2025-06-25","4","410","410","Oelofse G.110.pdf","WLAB","daily"
"22","Glen Beach","CN31","Recreational Node","Atlantic","18.377192","-33.947056","True","CN31","2025-06-23","08:27:00","2025-06-25","4.1","9","9","Infinity Environmental AD.170.pdf","WLAB","daily"
"84","The Kom","XCN01","Coastal Monitoring Point","Atlantic","18.3233","-34.14173333","True","XCN01","2025-06-20","08:04:00","2025-06-22","3","88","88","CWQ_115(20.06.2025).pdf","WLAB","routine"
"43","Seaforth Beach","XCS13","Recreational Node","False Bay","18.44663889","-34.19394444","True","XCS13","2025-06-20","09:32:00","2025-06-22","3","15","15","CWQ_115(20.06.2025).pdf","WLAB","routine"
"44","Simons Town Long Beach","XCS14","Recreational Node","False Bay","18.42655556","-34.18741667","True","XCS14","2025-06-20","09:23:00","2025-06-22","3","26","26","CWQ_115(20.06.2025).pdf","WLAB","routine"
"45","Glencairn Tidal Pool","CS38","Recreational Node","False Bay","18.432068","-34.162559","True","CS38","2025-06-20","09:16:00","2025-06-22","3","37","37","CWQ_115(20.06.2025).pdf","WLAB","routine"
"46","Glencairn Beach","XCS15","Recreational Node","False Bay","18.43218333","-34.15981667","True","XCS15","2025-06-20","09:11:00","2025-06-22","3","6","6","CWQ_115(20.06.2025).pdf","WLAB","routine"
"35","Noordhoek Beach (Hoek)","CS40","Recreational Node","Atlantic","18.35242828","-34.09751307","True","CS40","2025-06-20","08:48:00","2025-06-22","3","4","4","CWQ_115(20.06.2025).pdf","WLAB","routine"
"36","Long Beach Kommetjie","XCN02","Recreational Node","Atlantic","18.32828889","-34.13676667","True","XCN02","2025-06-20","08:10:00","2025-06-22","3","22","22","CWQ_115(20.06.2025).pdf","WLAB","routine"
"58","Sunrise Beach Parking Area","CS07","Recreational Node","False Bay","18.482613","-34.104809","True","CS07","2025-06-20","12:06:00","2025-06-22","3","28","28","CWQ_115(20.06.2025).pdf","WLAB","routine"
"57","Muizenberg Pavilion","CS16","Recreational Node","False Bay","18.472645","-34.107968","True","CS16","2025-06-20","12:00:00","2025-06-22","3","19","19","CWQ_115(20.06.2025).pdf","WLAB","routine"
"56","Muizenberg Surfers Corner","CS34","Recreational Node","False Bay","18.470834","-34.108983","True","CS34","2025-06-20","11:54:00","2025-06-22","3","21","21","CWQ_115(20.06.2025).pdf","WLAB","routine"
"55","St James Tidal Pool","CS04","Recreational Node","False Bay","18.459533","-34.118862","True","CS04","2025-06-20","11:46:00","2025-06-22","3","16","16","CWQ_115(20.06.2025).pdf","WLAB","routine"
"54","Dangers Beach","CS44","Recreational Node","False Bay","18.4561023","-34.12143007","True","CS44","2025-06-20","11:40:00","2025-06-22","3","13","13","CWQ_115(20.06.2025).pdf","WLAB","routine"
"53","Dalebrook Tidal Pool","CS03","Recreational Node","False Bay","18.45291667","-34.12403333","True","CS03","2025-06-20","11:36:00","2025-06-22","3","2","2","CWQ_115(20.06.2025).pdf","WLAB","routine"
"52","Kalk Bay Tidal Pool","CS02","Recreational Node","False Bay","18.4506","-34.12638333","True","CS02","2025-06-20","11:32:00","2025-06-22","3","3","3","CWQ_115(20.06.2025).pdf","WLAB","routine"
"37","Inner Kom","CS39","Recreational Node","Atlantic","18.318809","-34.144279","True","CS39","2025-06-20","08:00:00","2025-06-22","3","2","2","CWQ_115(20.06.2025).pdf","WLAB","routine"
"51","Kalk Bay Harbour Beach","CS01A","Recreational Node","False Bay","18.4483","-34.12875","True","CS01A","2025-06-20","11:25:00","2025-06-22","3","36","36","CWQ_115(20.06.2025).pdf","WLAB","routine"
"50","Woolley's Tidal Pool","CS42","Recreational Node","False Bay","18.44543279","-34.13273121","True","CS42","2025-06-20","11:19:00","2025-06-22","3","2","2","CWQ_115(20.06.2025).pdf","WLAB","routine"
"49","Clovelly Beach","XCS17","Recreational Node","False Bay","18.43955","-34.13281667","True","XCS17","2025-06-20","11:14:00","2025-06-22","3","8","8","CWQ_115(20.06.2025).pdf","WLAB","routine"
"47","Fish Hoek Beach Jager Walk","CS35","Recreational Node","False Bay","18.432959","-34.141276","True","CS35","2025-06-20","11:02:00","2025-06-22","3","6","6","CWQ_115(20.06.2025).pdf","WLAB","routine"
"48","Fish Hoek Beach","CS41","Recreational Node","False Bay","18.43275173","-34.1394567","True","CS41","2025-06-20","10:57:00","2025-06-22","3","18","18","CWQ_115(20.06.2025).pdf","WLAB","routine"
"39","Miller's Point Tidal Pool","CS37","Recreational Node","False Bay","18.476052","-34.231397","True","CS37","2025-06-20","10:18:00","2025-06-22","3","3","3","CWQ_115(20.06.2025).pdf","WLAB","routine"
"85","Millers Point","XCS11","Coastal Monitoring Point","False Bay","18.471959","-34.229893","True","XCS11","2025-06-20","10:07:00","2025-06-22","3","1","1","CWQ_115(20.06.2025).pdf","WLAB","routine"
"40","Fishermans Beach","XCS12","Recreational Node","False Bay","18.45838889","-34.20596667","True","XCS12","2025-06-20","10:00:00","2025-06-22","3","5","5","CWQ_115(20.06.2025).pdf","WLAB","routine"
"41","Windmill Beach","CS36","Recreational Node","False Bay","18.45634199","-34.20104751","True","CS36","2025-06-20","09:48:00","2025-06-22","3","9","9","CWQ_115(20.06.2025).pdf","WLAB","routine"
"42","Boulders Beach","XCS32","Recreational Node","False Bay","18.45221667","-34.19796667","True","XCS32","2025-06-20","09:40:00","2025-06-22","3","29","29","CWQ_115(20.06.2025).pdf","WLAB","routine"
"38","Scarborough Beach","XCN11","Recreational Node","Atlantic","18.37188861","-34.19988722","True","XCN11","2025-06-20","07:41:00","2025-06-22","3","2","2","CWQ_115(20.06.2025).pdf","WLAB","routine"
"67","Strand Pipe Surfing","XCS34","Recreational Node","False Bay","18.81328622","-34.10333837","True","XCS34","2025-06-20","09:20:00","2025-06-22","3","288","288","Oelofse G.109.pdf","WLAB","daily"
"68","Strand Lifesaving Club","XCS26","Recreational Node","False Bay","18.81753333","-34.10616667","True","XCS26","2025-06-20","08:04:00","2025-06-22","3","230","230","Oelofse G.109.pdf","WLAB","daily"
"22","Glen Beach","CN31","Recreational Node","Atlantic","18.377192","-33.947056","True","CN31","2025-06-20","08:17:00","2025-06-22","3","32","32","Infinity Environmental AD.169.pdf","WLAB","daily"
"24","Camps Bay Central","CN41","Recreational Node","Atlantic","18.37711225","-33.95092422","True","CN41","2025-06-20","08:05:00","2025-06-22","3","34","34","Infinity Environmental AD.169.pdf","WLAB","daily"
"25","Camps Bay South","CN11","Recreational Node","Atlantic","18.37566417","-33.95262556","True","CN11","2025-06-20","08:00:00","2025-06-22","3","21","21","Infinity Environmental AD.169.pdf","WLAB","daily"
"69","Strand Harmonie Park Jetty","XCS29","Recreational Node","False Bay","18.84579525","-34.13991145","True","XCS29","2025-06-19","10:25:00","2025-06-21","4.2","92","92","CWQ_114(19.06.2025).pdf","WLAB","routine"
"105","Gordon's Bay Sir Lowry's Pass River","XCS04","Coastal Monitoring Point","False Bay","18.866507","-34.157527","True","XCS04","2025-06-19","10:16:00","2025-06-21","4.2","106","106","CWQ_114(19.06.2025).pdf","WLAB","routine"
"70","Gordons Bay East Beach","XCS05","Recreational Node","False Bay","18.86756667","-34.160632","True","XCS05","2025-06-19","10:10:00","2025-06-21","4.2","33","33","CWQ_114(19.06.2025).pdf","WLAB","routine"
"71","Gordons Bay Milkwoods","CS29","Recreational Node","False Bay","18.865056","-34.161691","True","CS29","2025-06-19","10:06:00","2025-06-21","4.2","27","27","CWQ_114(19.06.2025).pdf","WLAB","routine"
"67","Strand Pipe Surfing","XCS34","Recreational Node","False Bay","18.81328622","-34.10333837","True","XCS34","2025-06-19","11:01:00","2025-06-21","4.2","90","90","CWQ_114(19.06.2025).pdf","WLAB","routine"
"73","Kogel Bay Beach","XCS09","Recreational Node","False Bay","18.85032","-34.236774","True","XCS09","2025-06-19","09:35:00","2025-06-21","4.2","2","2","CWQ_114(19.06.2025).pdf","WLAB","routine"
"68","Strand Lifesaving Club","XCS26","Recreational Node","False Bay","18.81753333","-34.10616667","True","XCS26","2025-06-19","10:54:00","2025-06-21","4.2","54","54","CWQ_114(19.06.2025).pdf","WLAB","routine"
"101","Strand Beach Between Melkbaai and Da Gama Street","CS31","Coastal Monitoring Point","False Bay","18.81975","-34.1093611","True","CS31","2025-06-19","10:44:00","2025-06-21","4.2","49","49","CWQ_114(19.06.2025).pdf","WLAB","routine"
"100","Strand Opposite Burnard Street","XCS27","Coastal Monitoring Point","False Bay","18.821155","-34.111664","True","XCS27","2025-06-19","10:40:00","2025-06-21","4.2","77","77","CWQ_114(19.06.2025).pdf","WLAB","routine"
"72","Gordons Bay Bikini Beach","XCS08","Recreational Node","False Bay","18.85868333","-34.16555","True","XCS08","2025-06-19","09:54:00","2025-06-21","4.2","5","5","CWQ_114(19.06.2025).pdf","WLAB","routine"
"66","Macassar Beach","XCS19","Recreational Node","False Bay","18.749314","-34.078065","True","XCS19","2025-06-19","11:27:00","2025-06-21","4.2","139","139","CWQ_114(19.06.2025).pdf","WLAB","routine"
"98","Strand Adjacent to Water Slides","CS32","Coastal Monitoring Point","False Bay","18.814436","-34.105044","True","CS32","2025-06-19","10:57:00","2025-06-21","4.2","63","63","CWQ_114(19.06.2025).pdf","WLAB","routine"
"68","Strand Lifesaving Club","XCS26","Recreational Node","False Bay","18.81753333","-34.10616667","True","XCS26","2025-06-19","08:57:00","2025-06-21","3.1","101","101","Oelofse G.108.pdf","WLAB","daily"
"67","Strand Pipe Surfing","XCS34","Recreational Node","False Bay","18.81328622","-34.10333837","True","XCS34","2025-06-19","09:12:00","2025-06-21","3.1","97","97","Oelofse G.108.pdf","WLAB","daily"
"22","Glen Beach","CN31","Recreational Node","Atlantic","18.377192","-33.947056","True","CN31","2025-06-19","08:45:00","2025-06-21","4.2","7","7","Infinity Environmental AD.167.pdf","WLAB","daily"
"24","Camps Bay Central","CN41","Recreational Node","Atlantic","18.37711225","-33.95092422","True","CN41","2025-06-19","08:35:00","2025-06-21","4.2","5","5","Infinity Environmental AD.167.pdf","WLAB","daily"
"25","Camps Bay South","CN11","Recreational Node","Atlantic","18.37566417","-33.95262556","True","CN11","2025-06-19","08:30:00","2025-06-21","4.2","2","2","Infinity Environmental AD.167.pdf","WLAB","daily"
"17","Clifton Second Beach","CN42","Recreational Node","Atlantic","18.376607","-33.937505","True","CN42","2025-06-18","11:55:00","2025-06-20","3.1","23","23","CWQ_112(18.06.2025).pdf","WLAB","routine"
"18","Clifton Fourth Beach","CN09","Recreational Node","Atlantic","18.374417","-33.940619","True","CN09","2025-06-18","11:47:00","2025-06-20","3.1","19","19","CWQ_112(18.06.2025).pdf","WLAB","routine"
"19","Maidens Cove North Sandy Cove","CN10","Recreational Node","Atlantic","18.37227917","-33.94339361","True","CN10","2025-06-18","11:36:00","2025-06-20","3.1","11","11","CWQ_112(18.06.2025).pdf","WLAB","routine"
"80","Maidens Cove Tidal Pool West Outside","CN19O","Coastal Monitoring Point","Atlantic","18.37331667","-33.94483333","True","CN19O","2025-06-18","11:32:00","2025-06-20","3.1","9","9","CWQ_112(18.06.2025).pdf","WLAB","routine"
"20","Maidens Cove Tidal Pool West Inside","CN19I","Recreational Node","Atlantic","18.37335","-33.944889","True","CN19I","2025-06-18","11:32:00","2025-06-20","3.1","7","7","CWQ_112(18.06.2025).pdf","WLAB","routine"
"22","Glen Beach","CN31","Recreational Node","Atlantic","18.377192","-33.947056","True","CN31","2025-06-18","11:31:00","2025-06-20","3.1","14","14","CWQ_112(18.06.2025).pdf","WLAB","routine"
"21","Maidens Cove Tidal Pool East Inside","CN20I","Recreational Node","Atlantic","18.374671","-33.945203","True","CN20I","2025-06-18","11:27:00","2025-06-20","3.1","6","6","CWQ_112(18.06.2025).pdf","WLAB","routine"
"23","Camps Bay North","CN30","Recreational Node","Atlantic","18.377445","-33.948847","True","CN30","2025-06-18","11:14:00","2025-06-20","3.1","9","9","CWQ_112(18.06.2025).pdf","WLAB","routine"
"24","Camps Bay Central","CN41","Recreational Node","Atlantic","18.37711225","-33.95092422","True","CN41","2025-06-18","11:09:00","2025-06-20","3.1","12","12","CWQ_112(18.06.2025).pdf","WLAB","routine"
"25","Camps Bay South","CN11","Recreational Node","Atlantic","18.37566417","-33.95262556","True","CN11","2025-06-18","11:02:00","2025-06-20","3.1","10","10","CWQ_112(18.06.2025).pdf","WLAB","routine"
"81","Camps Bay Tidal Pool Outside","CN12O","Coastal Monitoring Point","Atlantic","18.3751025","-33.95513444","True","CN12O","2025-06-18","10:51:00","2025-06-20","3.1","6","6","CWQ_112(18.06.2025).pdf","WLAB","routine"
"34","Hout Bay Chapmans Peak","XCN10","Recreational Node","Atlantic","18.3602","-34.04781667","True","XCN10","2025-06-18","09:31:00","2025-06-20","3.1","291","291","CWQ_112(18.06.2025).pdf","WLAB","routine"
"62","Blue Waters Resort","CS46","Recreational Node","False Bay","18.58049079","-34.08177896","True","CS46","2025-06-18","10:16:00","2025-06-20","3.1","88","88","CWQ_113(18.06.2025).pdf","WLAB","routine"
"92","Lukanon Drive Near WW Pump Station","CS14","Coastal Monitoring Point","False Bay","18.58851667","-34.07981667","True","CS14","2025-06-18","10:09:00","2025-06-20","3.1","83","83","CWQ_113(18.06.2025).pdf","WLAB","routine"
"93","Mitchells Plain WWED","CS18","Coastal Monitoring Point","False Bay","18.59825","-34.07793333","True","CS18","2025-06-18","09:51:00","2025-06-20","3.1","261","261","CWQ_113(18.06.2025).pdf","WLAB","routine"
"95","Mitchells Plain Stormwater Discharge West","CS23W","Coastal Monitoring Point","False Bay","18.610164","-34.076124","True","CS23W","2025-06-18","09:43:00","2025-06-20","3.1","2 880","2880","CWQ_113(18.06.2025).pdf","WLAB","routine"
"94","Mitchells Plain Stormwater Discharge East","CS23E","Coastal Monitoring Point","False Bay","18.61221667","-34.07566667","True","CS23E","2025-06-18","09:37:00","2025-06-20","3.1","2 450","2450","CWQ_113(18.06.2025).pdf","WLAB","routine"
"63","Mnandi Beach","CS19","Recreational Node","False Bay","18.622209","-34.075324","True","CS19","2025-06-18","09:27:00","2025-06-20","3.1","340","340","CWQ_113(18.06.2025).pdf","WLAB","routine"
"96","Mnandi Beach West Of Lifesaving Tower","CS15","Coastal Monitoring Point","False Bay","18.61866667","-34.07538333","True","CS15","2025-06-18","09:18:00","2025-06-20","3.1","440","440","CWQ_113(18.06.2025).pdf","WLAB","routine"
"28","Beta Beach","CN40","Recreational Node","Atlantic","18.37450268","-33.95956009","True","CN40","2025-06-18","10:30:00","2025-06-20","3.1","56","56","CWQ_112(18.06.2025).pdf","WLAB","routine"
"30","Cosy Bay","CN39","Recreational Node","Atlantic","18.36154654","-33.98211535","True","CN39","2025-06-18","10:20:00","2025-06-20","3.1","4","4","CWQ_112(18.06.2025).pdf","WLAB","routine"
"32","Llandudno","XCN03","Recreational Node","Atlantic","18.34031","-34.007816","True","XCN03","2025-06-18","10:03:00","2025-06-20","3.1","8","8","CWQ_112(18.06.2025).pdf","WLAB","routine"
"82","Logies Bay","CN38","Coastal Monitoring Point","Atlantic","18.34164296","-34.00508097","True","CN38","2025-06-18","09:55:00","2025-06-20","3.1","34","34","CWQ_112(18.06.2025).pdf","WLAB","routine"
"33","Hout Bay Mariners Wharf","HB13","Recreational Node","Atlantic","18.34918168","-34.04741935","True","HB13","2025-06-18","09:38:00","2025-06-20","3.1","201","201","CWQ_112(18.06.2025).pdf","WLAB","routine"
"64","Monwabisi Tidal Pool","XCS18","Recreational Node","False Bay","18.68863333","-34.07313333","True","XCS18","2025-06-18","08:58:00","2025-06-20","3.1","38","38","CWQ_113(18.06.2025).pdf","WLAB","routine"
"59","Ribbon Road Parking Area","CS11","Recreational Node","False Bay","18.523396","-34.093636","True","CS11","2025-06-18","10:38:00","2025-06-20","3.1","95","95","CWQ_113(18.06.2025).pdf","WLAB","routine"
"60","Strandfontein Tidal Pool","CS17","Recreational Node","False Bay","18.55351667","-34.08911667","True","CS17","2025-06-18","10:29:00","2025-06-20","3.1","128","128","CWQ_113(18.06.2025).pdf","WLAB","routine"
"61","Strandfontein Beach","CS45","Recreational Node","False Bay","18.55744323","-34.08733837","True","CS45","2025-06-18","10:23:00","2025-06-20","3.1","137","137","CWQ_113(18.06.2025).pdf","WLAB","routine"
"65","Monwabisi Beach","XCS30","Recreational Node","False Bay","18.68996667","-34.07284056","True","XCS30","2025-06-18","08:41:00","2025-06-20","3.1","183","183","CWQ_113(18.06.2025).pdf","WLAB","routine"
"26","Camps Bay Tidal Pool","CN12A","Recreational Node","Atlantic","18.375176","-33.955052","True","CN12A","2025-06-18","10:51:00","2025-06-20","3.1","3","3","CWQ_112(18.06.2025).pdf","WLAB","routine"
"27","Barley Bay","CN14","Recreational Node","Atlantic","18.37688167","-33.95765444","True","CN14","2025-06-18","10:44:00","2025-06-20","3.1","4","4","CWQ_112(18.06.2025).pdf","WLAB","routine"
"29","Bakoven Beach","CN21","Recreational Node","Atlantic","18.37306972","-33.96049972","True","CN21","2025-06-18","10:37:00","2025-06-20","3.1","19","19","CWQ_112(18.06.2025).pdf","WLAB","routine"
"25","Camps Bay South","CN11","Recreational Node","Atlantic","18.37566417","-33.95262556","True","CN11","2025-06-18","08:45:00","2025-06-20","3.1","20","20","Infinity Environmental AD.166.pdf","WLAB","daily"
"24","Camps Bay Central","CN41","Recreational Node","Atlantic","18.37711225","-33.95092422","True","CN41","2025-06-18","08:50:00","2025-06-20","3.1","26","26","Infinity Environmental AD.166.pdf","WLAB","daily"
"68","Strand Lifesaving Club","XCS26","Recreational Node","False Bay","18.81753333","-34.10616667","True","XCS26","2025-06-18","08:53:00","2025-06-20","4.1","109","109","Oelofse G.107.pdf","WLAB","daily"
"67","Strand Pipe Surfing","XCS34","Recreational Node","False Bay","18.81328622","-34.10333837","True","XCS34","2025-06-18","09:07:00","2025-06-20","4.1","127","127","Oelofse G.107.pdf","WLAB","daily"
"22","Glen Beach","CN31","Recreational Node","Atlantic","18.377192","-33.947056","True","CN31","2025-06-18","09:08:00","2025-06-20","3.1","33","33","Infinity Environmental AD.166.pdf","WLAB","daily"
"6","Tableview","XCN06","Recreational Node","Atlantic","18.4761","-33.82303333","True","XCN06","2025-06-17","10:09:00","2025-06-19","5.1","5","5","CWQ_111(17.06.2025).pdf","WLAB","routine"
"79","Saunders Rocks Sandy Beach","CN16A","Coastal Monitoring Point","Atlantic","18.377242","-33.923944","True","CN16A","2025-06-17","10:59:00","2025-06-19","5.1","64","64","CWQ_111(17.06.2025).pdf","WLAB","routine"
"15","Saunders Rocks Tidal Pool Outside","CN16O","Recreational Node","Atlantic","18.377186","-33.924225","True","CN16O","2025-06-17","10:58:00","2025-06-19","5.1","80","80","CWQ_111(17.06.2025).pdf","WLAB","routine"
"16","Saunders Rocks Tidal Pool","CN16I","Recreational Node","Atlantic","18.377048","-33.924335","True","CN16I","2025-06-17","10:57:00","2025-06-19","5.1","63","63","CWQ_111(17.06.2025).pdf","WLAB","routine"
"8","Lagoon Beach","CN22","Recreational Node","Atlantic","18.481274","-33.892047","True","CN22","2025-06-17","10:31:00","2025-06-19","5.1","190","190","CWQ_111(17.06.2025).pdf","WLAB","routine"
"7","Milnerton Lighthouse","XCN04","Recreational Node","Atlantic","18.48665","-33.88135","True","XCN04","2025-06-17","10:23:00","2025-06-19","5.1","90","90","CWQ_111(17.06.2025).pdf","WLAB","routine"
"5","Small Bay","CN37","Recreational Node","Atlantic","18.45822252","-33.79914844","True","CN37","2025-06-17","09:56:00","2025-06-19","5.1","9","9","CWQ_111(17.06.2025).pdf","WLAB","routine"
"4","Big Bay","XCN12","Recreational Node","Atlantic","18.45666667","-33.7938","True","XCN12","2025-06-17","09:48:00","2025-06-19","5.1","18","18","CWQ_111(17.06.2025).pdf","WLAB","routine"
"9","Mouille Point Beach","CN04","Recreational Node","Atlantic","18.40758333","-33.89918333","True","CN04","2025-06-17","11:49:00","2025-06-19","5.1","18","18","CWQ_111(17.06.2025).pdf","WLAB","routine"
"75","Green Point Pump Station","CN05","Coastal Monitoring Point","Atlantic","18.39882","-33.900318","True","CN05","2025-06-17","11:44:00","2025-06-19","5.1","1","1","CWQ_111(17.06.2025).pdf","WLAB","routine"
"10","Three Anchor Bay Beach","CN36","Recreational Node","Atlantic","18.39798198","-33.90611137","True","CN36","2025-06-17","11:37:00","2025-06-19","5.1","101","101","CWQ_111(17.06.2025).pdf","WLAB","routine"
"76","Three Anchor Bay NW Rocks","CN06","Coastal Monitoring Point","Atlantic","18.39745","-33.90551667","True","CN06","2025-06-17","11:35:00","2025-06-19","5.1","21","21","CWQ_111(17.06.2025).pdf","WLAB","routine"
"11","Rocklands Beach","CN06C","Recreational Node","Atlantic","18.39336667","-33.90851667","True","CN06C","2025-06-17","11:29:00","2025-06-19","5.1","12","12","CWQ_111(17.06.2025).pdf","WLAB","routine"
"77","Milton Beach Tidal Pool Outside","CN18O","Coastal Monitoring Point","Atlantic","18.38618333","-33.91453333","True","CN18O","2025-06-17","11:24:00","2025-06-19","5.1","40","40","CWQ_111(17.06.2025).pdf","WLAB","routine"
"12","Milton Beach Tidal Pool","CN18I","Recreational Node","Atlantic","18.386189","-33.914455","True","CN18I","2025-06-17","11:23:00","2025-06-19","5.1","30","30","CWQ_111(17.06.2025).pdf","WLAB","routine"
"78","Sunset Beach","CN08O","Coastal Monitoring Point","Atlantic","18.38075","-33.91991667","True","CN08O","2025-06-17","11:07:00","2025-06-19","5.1","43","43","CWQ_111(17.06.2025).pdf","WLAB","routine"
"13","Queen's Beach Tidal Pool","CN34","Recreational Node","Atlantic","18.37869426","-33.92108985","True","CN34","2025-06-17","11:05:00","2025-06-19","5.1","71","71","CWQ_111(17.06.2025).pdf","WLAB","routine"
"14","Queen's Beach Gully","CN35","Recreational Node","Atlantic","18.37825668","-33.92135956","True","CN35","2025-06-17","11:04:00","2025-06-19","5.1","97","97","CWQ_111(17.06.2025).pdf","WLAB","routine"
"3","Melkbosstrand","XCN07","Recreational Node","Atlantic","18.44006","-33.726691","True","XCN07","2025-06-17","09:31:00","2025-06-19","5.1","11","11","CWQ_111(17.06.2025).pdf","WLAB","routine"
"24","Camps Bay Central","CN41","Recreational Node","Atlantic","18.37711225","-33.95092422","True","CN41","2025-06-17","08:55:00","2025-06-19","5.1","18","18","Infinity Environmental AD.165.pdf","WLAB","daily"
"67","Strand Pipe Surfing","XCS34","Recreational Node","False Bay","18.81328622","-34.10333837","True","XCS34","2025-06-17","08:42:00","2025-06-19","3","100","100","Oelofse G.106.pdf","WLAB","daily"
"22","Glen Beach","CN31","Recreational Node","Atlantic","18.377192","-33.947056","True","CN31","2025-06-17","09:10:00","2025-06-19","5.1","28","28","Infinity Environmental AD.165.pdf","WLAB","daily"
"25","Camps Bay South","CN11","Recreational Node","Atlantic","18.37566417","-33.95262556","True","CN11","2025-06-17","08:50:00","2025-06-19","5.1","11","11","Infinity Environmental AD.165.pdf","WLAB","daily"
"68","Strand Lifesaving Club","XCS26","Recreational Node","False Bay","18.81753333","-34.10616667","True","XCS26","2025-06-17","08:56:00","2025-06-19","3","70","70","Oelofse G.106.pdf","WLAB","daily"
"68","Strand Lifesaving Club","XCS26","Recreational Node","False Bay","18.81753333","-34.10616667","True","XCS26","2025-06-13","08:53:00","2025-06-15","2.9","93","93","Oelofse G.105.pdf","WLAB","daily"
"67","Strand Pipe Surfing","XCS34","Recreational Node","False Bay","18.81328622","-34.10333837","True","XCS34","2025-06-13","08:46:00","2025-06-15","2.9","72","72","Oelofse G.105.pdf","WLAB","daily"
"36","Long Beach Kommetjie","XCN02","Recreational Node","Atlantic","18.32828889","-34.13676667","True","XCN02","2025-06-12","09:43:00","2025-06-14","1.2","1","1","CWQ_110(12.06.2025).pdf","WLAB","routine"
"43","Seaforth Beach","XCS13","Recreational Node","False Bay","18.44663889","-34.19394444","True","XCS13","2025-06-12","10:19:00","2025-06-14","1.2","14","14","CWQ_110(12.06.2025).pdf","WLAB","routine"
"56","Muizenberg Surfers Corner","CS34","Recreational Node","False Bay","18.470834","-34.108983","True","CS34","2025-06-12","11:51:00","2025-06-14","1.2","28","28","CWQ_110(12.06.2025).pdf","WLAB","routine"
"57","Muizenberg Pavilion","CS16","Recreational Node","False Bay","18.472645","-34.107968","True","CS16","2025-06-12","11:49:00","2025-06-14","1.2","81","81","CWQ_110(12.06.2025).pdf","WLAB","routine"
"55","St James Tidal Pool","CS04","Recreational Node","False Bay","18.459533","-34.118862","True","CS04","2025-06-12","11:40:00","2025-06-14","1.2","2","2","CWQ_110(12.06.2025).pdf","WLAB","routine"
"54","Dangers Beach","CS44","Recreational Node","False Bay","18.4561023","-34.12143007","True","CS44","2025-06-12","11:35:00","2025-06-14","1.2","31","31","CWQ_110(12.06.2025).pdf","WLAB","routine"
"53","Dalebrook Tidal Pool","CS03","Recreational Node","False Bay","18.45291667","-34.12403333","True","CS03","2025-06-12","11:28:00","2025-06-14","1.2","5","5","CWQ_110(12.06.2025).pdf","WLAB","routine"
"52","Kalk Bay Tidal Pool","CS02","Recreational Node","False Bay","18.4506","-34.12638333","True","CS02","2025-06-12","11:21:00","2025-06-14","1.2","3","3","CWQ_110(12.06.2025).pdf","WLAB","routine"
"47","Fish Hoek Beach Jager Walk","CS35","Recreational Node","False Bay","18.432959","-34.141276","True","CS35","2025-06-12","11:07:00","2025-06-14","1.2","24","24","CWQ_110(12.06.2025).pdf","WLAB","routine"
"48","Fish Hoek Beach","CS41","Recreational Node","False Bay","18.43275173","-34.1394567","True","CS41","2025-06-12","10:59:00","2025-06-14","1.2","13","13","CWQ_110(12.06.2025).pdf","WLAB","routine"
"46","Glencairn Beach","XCS15","Recreational Node","False Bay","18.43218333","-34.15981667","True","XCS15","2025-06-12","10:49:00","2025-06-14","1.2","48","48","CWQ_110(12.06.2025).pdf","WLAB","routine"
"45","Glencairn Tidal Pool","CS38","Recreational Node","False Bay","18.432068","-34.162559","True","CS38","2025-06-12","10:40:00","2025-06-14","1.2","15","15","CWQ_110(12.06.2025).pdf","WLAB","routine"
"44","Simons Town Long Beach","XCS14","Recreational Node","False Bay","18.42655556","-34.18741667","True","XCS14","2025-06-12","10:29:00","2025-06-14","1.2","3","3","CWQ_110(12.06.2025).pdf","WLAB","routine"
"25","Camps Bay South","CN11","Recreational Node","Atlantic","18.37566417","-33.95262556","True","CN11","2025-06-12","09:10:00","2025-06-14","1.2","25","25","Infinity Environmental AD.164.pdf","WLAB","daily"
"24","Camps Bay Central","CN41","Recreational Node","Atlantic","18.37711225","-33.95092422","True","CN41","2025-06-12","09:18:00","2025-06-14","1.2","27","27","Infinity Environmental AD.164.pdf","WLAB","daily"
"68","Strand Lifesaving Club","XCS26","Recreational Node","False Bay","18.81753333","-34.10616667","True","XCS26","2025-06-12","09:02:00","2025-06-14","5.8","54","54","Oelofse G.104.pdf","WLAB","daily"
"67","Strand Pipe Surfing","XCS34","Recreational Node","False Bay","18.81328622","-34.10333837","True","XCS34","2025-06-12","08:50:00","2025-06-14","5.8","42","42","Oelofse G.104.pdf","WLAB","daily"
"22","Glen Beach","CN31","Recreational Node","Atlantic","18.377192","-33.947056","True","CN31","2025-06-12","09:40:00","2025-06-14","1.2","13","13","Infinity Environmental AD.164.pdf","WLAB","daily"
"67","Strand Pipe Surfing","XCS34","Recreational Node","False Bay","18.81328622","-34.10333837","True","XCS34","2025-06-11","11:51:00","2025-06-13","1.4","126","126","CWQ_109(11.06.2025).pdf","WLAB","routine"
"73","Kogel Bay Beach","XCS09","Recreational Node","False Bay","18.85032","-34.236774","True","XCS09","2025-06-11","10:01:00","2025-06-13","1.4","71","71","CWQ_109(11.06.2025).pdf","WLAB","routine"
"64","Monwabisi Tidal Pool","XCS18","Recreational Node","False Bay","18.68863333","-34.07313333","True","XCS18","2025-06-11","12:29:00","2025-06-13","1.4","2","2","CWQ_109(11.06.2025).pdf","WLAB","routine"
"63","Mnandi Beach","CS19","Recreational Node","False Bay","18.622209","-34.075324","True","CS19","2025-06-11","12:48:00","2025-06-13","1.4","68","68","CWQ_109(11.06.2025).pdf","WLAB","routine"
"61","Strandfontein Beach","CS45","Recreational Node","False Bay","18.55744323","-34.08733837","True","CS45","2025-06-11","13:02:00","2025-06-13","1.4","1","1","CWQ_109(11.06.2025).pdf","WLAB","routine"
"60","Strandfontein Tidal Pool","CS17","Recreational Node","False Bay","18.55351667","-34.08911667","True","CS17","2025-06-11","13:15:00","2025-06-13","1.4","6","6","CWQ_109(11.06.2025).pdf","WLAB","routine"
"72","Gordons Bay Bikini Beach","XCS08","Recreational Node","False Bay","18.85868333","-34.16555","True","XCS08","2025-06-11","10:28:00","2025-06-13","1.4","6","6","CWQ_109(11.06.2025).pdf","WLAB","routine"
"71","Gordons Bay Milkwoods","CS29","Recreational Node","False Bay","18.865056","-34.161691","True","CS29","2025-06-11","10:42:00","2025-06-13","1.4","21","21","CWQ_109(11.06.2025).pdf","WLAB","routine"
"70","Gordons Bay East Beach","XCS05","Recreational Node","False Bay","18.86756667","-34.160632","True","XCS05","2025-06-11","10:52:00","2025-06-13","1.4","15","15","CWQ_109(11.06.2025).pdf","WLAB","routine"
"69","Strand Harmonie Park Jetty","XCS29","Recreational Node","False Bay","18.84579525","-34.13991145","True","XCS29","2025-06-11","11:07:00","2025-06-13","1.4","18","18","CWQ_109(11.06.2025).pdf","WLAB","routine"
"101","Strand Beach Between Melkbaai and Da Gama Street","CS31","Coastal Monitoring Point","False Bay","18.81975","-34.1093611","True","CS31","2025-06-11",NULL,"2025-06-13","1.4","41","41","CWQ_109(11.06.2025).pdf","WLAB","routine"
"68","Strand Lifesaving Club","XCS26","Recreational Node","False Bay","18.81753333","-34.10616667","True","XCS26","2025-06-11","11:38:00","2025-06-13","1.4","48","48","CWQ_109(11.06.2025).pdf","WLAB","routine"
"98","Strand Adjacent to Water Slides","CS32","Coastal Monitoring Point","False Bay","18.814436","-34.105044","True","CS32","2025-06-11","11:45:00","2025-06-13","1.4","62","62","CWQ_109(11.06.2025).pdf","WLAB","routine"
"25","Camps Bay South","CN11","Recreational Node","Atlantic","18.37566417","-33.95262556","True","CN11","2025-06-11","09:03:00","2025-06-13","1.4","6","6","Infinity Environmental AD.163.pdf","WLAB","daily"
"22","Glen Beach","CN31","Recreational Node","Atlantic","18.377192","-33.947056","True","CN31","2025-06-11","09:14:00","2025-06-13","1.4","2","2","Infinity Environmental AD.163.pdf","WLAB","daily"
"68","Strand Lifesaving Club","XCS26","Recreational Node","False Bay","18.81753333","-34.10616667","True","XCS26","2025-06-11","09:47:00","2025-06-13","4.2","66","66","Oelofse G.103.pdf","WLAB","daily"
"67","Strand Pipe Surfing","XCS34","Recreational Node","False Bay","18.81328622","-34.10333837","True","XCS34","2025-06-11","09:38:00","2025-06-13","4.2","55","55","Oelofse G.103.pdf","WLAB","daily"
"24","Camps Bay Central","CN41","Recreational Node","Atlantic","18.37711225","-33.95092422","True","CN41","2025-06-11","09:07:00","2025-06-13","1.4","8","8","Infinity Environmental AD.163.pdf","WLAB","daily"
"26","Camps Bay Tidal Pool","CN12A","Recreational Node","Atlantic","18.375176","-33.955052","True","CN12A","2025-06-10","10:25:00","2025-06-12","3.1","4","4","CWQ_108(10.06.2025).pdf","WLAB","routine"
"34","Hout Bay Chapmans Peak","XCN10","Recreational Node","Atlantic","18.3602","-34.04781667","True","XCN10","2025-06-10","09:27:00","2025-06-12","3.1","112","112","CWQ_108(10.06.2025).pdf","WLAB","routine"
"81","Camps Bay Tidal Pool Outside","CN12O","Coastal Monitoring Point","Atlantic","18.3751025","-33.95513444","True","CN12O","2025-06-10","10:26:00","2025-06-12","3.1","5","5","CWQ_108(10.06.2025).pdf","WLAB","routine"
"25","Camps Bay South","CN11","Recreational Node","Atlantic","18.37566417","-33.95262556","True","CN11","2025-06-10","10:34:00","2025-06-12","3.1","ND","0","CWQ_108(10.06.2025).pdf","WLAB","routine"
"24","Camps Bay Central","CN41","Recreational Node","Atlantic","18.37711225","-33.95092422","True","CN41","2025-06-10","10:40:00","2025-06-12","3.1","ND","0","CWQ_108(10.06.2025).pdf","WLAB","routine"
"23","Camps Bay North","CN30","Recreational Node","Atlantic","18.377445","-33.948847","True","CN30","2025-06-10","10:45:00","2025-06-12","3.1","ND","0","CWQ_108(10.06.2025).pdf","WLAB","routine"
"18","Clifton Fourth Beach","CN09","Recreational Node","Atlantic","18.374417","-33.940619","True","CN09","2025-06-10","11:10:00","2025-06-12","3.1","ND","0","CWQ_108(10.06.2025).pdf","WLAB","routine"
"19","Maidens Cove North Sandy Cove","CN10","Recreational Node","Atlantic","18.37227917","-33.94339361","True","CN10","2025-06-10","10:59:00","2025-06-12","3.1","ND","0","CWQ_108(10.06.2025).pdf","WLAB","routine"
"20","Maidens Cove Tidal Pool West Inside","CN19I","Recreational Node","Atlantic","18.37335","-33.944889","True","CN19I","2025-06-10","10:55:00","2025-06-12","3.1","2","2","CWQ_108(10.06.2025).pdf","WLAB","routine"
"22","Glen Beach","CN31","Recreational Node","Atlantic","18.377192","-33.947056","True","CN31","2025-06-10","10:51:00","2025-06-12","3.1","1","1","CWQ_108(10.06.2025).pdf","WLAB","routine"
"32","Llandudno","XCN03","Recreational Node","Atlantic","18.34031","-34.007816","True","XCN03","2025-06-10","09:51:00","2025-06-12","3.1","5","5","Infinity Environmental AD.161(FB).pdf","WLAB","routine"
"29","Bakoven Beach","CN21","Recreational Node","Atlantic","18.37306972","-33.96049972","True","CN21","2025-06-10","10:18:00","2025-06-12","3.1","12","12","CWQ_108(10.06.2025).pdf","WLAB","routine"
"28","Beta Beach","CN40","Recreational Node","Atlantic","18.37450268","-33.95956009","True","CN40","2025-06-10","10:13:00","2025-06-12","3.1","ND","0","CWQ_108(10.06.2025).pdf","WLAB","routine"
"33","Hout Bay Mariners Wharf","HB13","Recreational Node","Atlantic","18.34918168","-34.04741935","True","HB13","2025-06-10","09:34:00","2025-06-12","3.1","178","178","CWQ_108(10.06.2025).pdf","WLAB","routine"
"68","Strand Lifesaving Club","XCS26","Recreational Node","False Bay","18.81753333","-34.10616667","True","XCS26","2025-06-10","09:15:00","2025-06-12","4.1","104","104","Oelofse G.102.pdf","WLAB","daily"
"67","Strand Pipe Surfing","XCS34","Recreational Node","False Bay","18.81328622","-34.10333837","True","XCS34","2025-06-10","09:06:00","2025-06-12","4.1","109","109","Oelofse G.102.pdf","WLAB","daily"
"25","Camps Bay South","CN11","Recreational Node","Atlantic","18.37566417","-33.95262556","True","CN11","2025-06-10","11:22:00","2025-06-12","3.1","60","60","Infinity Environmental AD.162.pdf","WLAB","daily"
"24","Camps Bay Central","CN41","Recreational Node","Atlantic","18.37711225","-33.95092422","True","CN41","2025-06-10","11:26:00","2025-06-12","3.1","ND","0","Infinity Environmental AD.162.pdf","WLAB","daily"
"22","Glen Beach","CN31","Recreational Node","Atlantic","18.377192","-33.947056","True","CN31","2025-06-10","11:36:00","2025-06-12","3.1","59","59","Infinity Environmental AD.162.pdf","WLAB","daily"
"12","Milton Beach Tidal Pool","CN18I","Recreational Node","Atlantic","18.386189","-33.914455","True","CN18I","2025-06-09","11:17:00","2025-06-11","2.2","ND","0","CWQ_107(09.06.2025).pdf","WLAB","routine"
"15","Saunders Rocks Tidal Pool Outside","CN16O","Recreational Node","Atlantic","18.377186","-33.924225","True","CN16O","2025-06-09","11:04:00","2025-06-11","2.2","142","142","CWQ_107(09.06.2025).pdf","WLAB","routine"
"8","Lagoon Beach","CN22","Recreational Node","Atlantic","18.481274","-33.892047","True","CN22","2025-06-09","10:38:00","2025-06-11","2.2","160","160","CWQ_107(09.06.2025).pdf","WLAB","routine"
"7","Milnerton Lighthouse","XCN04","Recreational Node","Atlantic","18.48665","-33.88135","True","XCN04","2025-06-09","10:29:00","2025-06-11","2.2","13","13","CWQ_107(09.06.2025).pdf","WLAB","routine"
"6","Tableview","XCN06","Recreational Node","Atlantic","18.4761","-33.82303333","True","XCN06","2025-06-09","10:12:00","2025-06-11","2.2","7","7","CWQ_107(09.06.2025).pdf","WLAB","routine"
"5","Small Bay","CN37","Recreational Node","Atlantic","18.45822252","-33.79914844","True","CN37","2025-06-09","09:59:00","2025-06-11","2.2","3","3","CWQ_107(09.06.2025).pdf","WLAB","routine"
"4","Big Bay","XCN12","Recreational Node","Atlantic","18.45666667","-33.7938","True","XCN12","2025-06-09","09:48:00","2025-06-11","2.2","8","8","CWQ_107(09.06.2025).pdf","WLAB","routine"
"75","Green Point Pump Station","CN05","Coastal Monitoring Point","Atlantic","18.39882","-33.900318","True","CN05","2025-06-09","11:30:00","2025-06-11","2.2","43","43","CWQ_107(09.06.2025).pdf","WLAB","routine"
"10","Three Anchor Bay Beach","CN36","Recreational Node","Atlantic","18.39798198","-33.90611137","True","CN36","2025-06-09","11:24:00","2025-06-11","2.2","94","94","CWQ_107(09.06.2025).pdf","WLAB","routine"
"3","Melkbosstrand","XCN07","Recreational Node","Atlantic","18.44006","-33.726691","True","XCN07","2025-06-09","09:31:00","2025-06-11","2.2","5","5","CWQ_107(09.06.2025).pdf","WLAB","routine"
"16","Saunders Rocks Tidal Pool","CN16I","Recreational Node","Atlantic","18.377048","-33.924335","True","CN16I","2025-06-09","11:04:00","2025-06-11","2.2","1","1","CWQ_107(09.06.2025).pdf","WLAB","routine"
"25","Camps Bay South","CN11","Recreational Node","Atlantic","18.37566417","-33.95262556","True","CN11","2025-06-09","08:46:00","2025-06-11","2.2","20","20","Infinity Environmental AD.160.pdf","WLAB","daily"
"24","Camps Bay Central","CN41","Recreational Node","Atlantic","18.37711225","-33.95092422","True","CN41","2025-06-09","08:50:00","2025-06-11","2.2","21","21","Infinity Environmental AD.160.pdf","WLAB","daily"
"22","Glen Beach","CN31","Recreational Node","Atlantic","18.377192","-33.947056","True","CN31","2025-06-09","09:05:00","2025-06-11","2.2","37","37","Infinity Environmental AD.160.pdf","WLAB","daily"
"67","Strand Pipe Surfing","XCS34","Recreational Node","False Bay","18.81328622","-34.10333837","True","XCS34","2025-06-09","10:05:00","2025-06-11","5.5","180","180","Oelofse G.101.pdf","WLAB","daily"
"68","Strand Lifesaving Club","XCS26","Recreational Node","False Bay","18.81753333","-34.10616667","True","XCS26","2025-06-09","10:14:00","2025-06-11","5.5","214","214","Oelofse G.101.pdf","WLAB","daily"
"83","Noordhoek WWTW Outflow","CN29","Coastal Monitoring Point","Atlantic","18.34236","-34.126827","True","CN29","2025-06-06","09:45:00","2025-06-08","3.5","2","2","CWQ_106(06.06.2025).pdf","WLAB","routine"
"35","Noordhoek Beach (Hoek)","CS40","Recreational Node","Atlantic","18.35242828","-34.09751307","True","CS40","2025-06-06","10:24:00","2025-06-08","3.5","ND","0","CWQ_106(06.06.2025).pdf","WLAB","routine"
"36","Long Beach Kommetjie","XCN02","Recreational Node","Atlantic","18.32828889","-34.13676667","True","XCN02","2025-06-06","09:33:00","2025-06-08","3.5","ND","0","CWQ_106(06.06.2025).pdf","WLAB","routine"
"84","The Kom","XCN01","Coastal Monitoring Point","Atlantic","18.3233","-34.14173333","True","XCN01","2025-06-06","09:28:00","2025-06-08","3.5","108","108","CWQ_106(06.06.2025).pdf","WLAB","routine"
"37","Inner Kom","CS39","Recreational Node","Atlantic","18.318809","-34.144279","True","CS39","2025-06-06","09:19:00","2025-06-08","3.5","ND","0","CWQ_106(06.06.2025).pdf","WLAB","routine"
"38","Scarborough Beach","XCN11","Recreational Node","Atlantic","18.37188861","-34.19988722","True","XCN11","2025-06-06","09:03:00","2025-06-08","3.5","3","3","CWQ_106(06.06.2025).pdf","WLAB","routine"
"25","Camps Bay South","CN11","Recreational Node","Atlantic","18.37566417","-33.95262556","True","CN11","2025-06-06","10:03:00","2025-06-08","3.5","37","37","Infinity Environmental AD.159.pdf","WLAB","daily"
"68","Strand Lifesaving Club","XCS26","Recreational Node","False Bay","18.81753333","-34.10616667","True","XCS26","2025-06-06","09:19:00","2025-06-08","2.6","17","17","Oelofse G.100.pdf","WLAB","daily"
"67","Strand Pipe Surfing","XCS34","Recreational Node","False Bay","18.81328622","-34.10333837","True","XCS34","2025-06-06","09:10:00","2025-06-08","2.6","89","89","Oelofse G.100.pdf","WLAB","daily"
"22","Glen Beach","CN31","Recreational Node","Atlantic","18.377192","-33.947056","True","CN31","2025-06-06","10:20:00","2025-06-08","3.5","26","26","Infinity Environmental AD.159.pdf","WLAB","daily"
"24","Camps Bay Central","CN41","Recreational Node","Atlantic","18.37711225","-33.95092422","True","CN41","2025-06-06","10:10:00","2025-06-08","3.5","34","34","Infinity Environmental AD.159.pdf","WLAB","daily"
"48","Fish Hoek Beach","CS41","Recreational Node","False Bay","18.43275173","-34.1394567","True","CS41","2025-06-05","10:58:00","2025-06-07","3.6","5","5","CWQ_105(05.06.2025).pdf","WLAB","routine"
"49","Clovelly Beach","XCS17","Recreational Node","False Bay","18.43955","-34.13281667","True","XCS17","2025-06-05","10:48:00","2025-06-07","3.6","3","3","CWQ_105(05.06.2025).pdf","WLAB","routine"
"45","Glencairn Tidal Pool","CS38","Recreational Node","False Bay","18.432068","-34.162559","True","CS38","2025-06-05","11:15:00","2025-06-07","3.6","4","4","CWQ_105(05.06.2025).pdf","WLAB","routine"
"44","Simons Town Long Beach","XCS14","Recreational Node","False Bay","18.42655556","-34.18741667","True","XCS14","2025-06-05","11:22:00","2025-06-07","3.6","7","7","CWQ_105(05.06.2025).pdf","WLAB","routine"
"87","Simons Town Diving School","XCS22","Coastal Monitoring Point","False Bay","18.42901","-34.191781","True","XCS22","2025-06-05","11:28:00","2025-06-07","3.6","5","5","CWQ_105(05.06.2025).pdf","WLAB","routine"
"86","Simons Town Harbour","XCS21","Coastal Monitoring Point","False Bay","18.432861","-34.192772","True","XCS21","2025-06-05","11:33:00","2025-06-07","3.6","33","33","CWQ_105(05.06.2025).pdf","WLAB","routine"
"43","Seaforth Beach","XCS13","Recreational Node","False Bay","18.44663889","-34.19394444","True","XCS13","2025-06-05","11:42:00","2025-06-07","3.6","5","5","CWQ_105(05.06.2025).pdf","WLAB","routine"
"57","Muizenberg Pavilion","CS16","Recreational Node","False Bay","18.472645","-34.107968","True","CS16","2025-06-05","09:53:00","2025-06-07","3.6","85","85","CWQ_105(05.06.2025).pdf","WLAB","routine"
"42","Boulders Beach","XCS32","Recreational Node","False Bay","18.45221667","-34.19796667","True","XCS32","2025-06-05","11:48:00","2025-06-07","3.6","2","2","CWQ_105(05.06.2025).pdf","WLAB","routine"
"41","Windmill Beach","CS36","Recreational Node","False Bay","18.45634199","-34.20104751","True","CS36","2025-06-05","11:57:00","2025-06-07","3.6","7","7","CWQ_105(05.06.2025).pdf","WLAB","routine"
"85","Millers Point","XCS11","Coastal Monitoring Point","False Bay","18.471959","-34.229893","True","XCS11","2025-06-05","12:18:00","2025-06-07","3.6","ND","0","CWQ_105(05.06.2025).pdf","WLAB","routine"
"39","Miller's Point Tidal Pool","CS37","Recreational Node","False Bay","18.476052","-34.231397","True","CS37","2025-06-05","12:27:00","2025-06-07","3.6","ND","0","CWQ_105(05.06.2025).pdf","WLAB","routine"
"88","Muizenberg Station","CS06","Coastal Monitoring Point","False Bay","18.468846","-34.10961","True","CS06","2025-06-05","09:58:00","2025-06-07","3.6","112","112","CWQ_105(05.06.2025).pdf","WLAB","routine"
"56","Muizenberg Surfers Corner","CS34","Recreational Node","False Bay","18.470834","-34.108983","True","CS34","2025-06-05","09:59:00","2025-06-07","3.6","96","96","CWQ_105(05.06.2025).pdf","WLAB","routine"
"55","St James Tidal Pool","CS04","Recreational Node","False Bay","18.459533","-34.118862","True","CS04","2025-06-05","10:11:00","2025-06-07","3.6","9","9","CWQ_105(05.06.2025).pdf","WLAB","routine"
"54","Dangers Beach","CS44","Recreational Node","False Bay","18.4561023","-34.12143007","True","CS44","2025-06-05","10:15:00","2025-06-07","3.6","17","17","CWQ_105(05.06.2025).pdf","WLAB","routine"
"53","Dalebrook Tidal Pool","CS03","Recreational Node","False Bay","18.45291667","-34.12403333","True","CS03","2025-06-05","10:23:00","2025-06-07","3.6","4","4","CWQ_105(05.06.2025).pdf","WLAB","routine"
"52","Kalk Bay Tidal Pool","CS02","Recreational Node","False Bay","18.4506","-34.12638333","True","CS02","2025-06-05","10:29:00","2025-06-07","3.6","2","2","CWQ_105(05.06.2025).pdf","WLAB","routine"
"51","Kalk Bay Harbour Beach","CS01A","Recreational Node","False Bay","18.4483","-34.12875","True","CS01A","2025-06-05","10:37:00","2025-06-07","3.6","67","67","CWQ_105(05.06.2025).pdf","WLAB","routine"
"40","Fishermans Beach","XCS12","Recreational Node","False Bay","18.45838889","-34.20596667","True","XCS12","2025-06-05","12:09:00","2025-06-07","3.6","ND","0","CWQ_105(05.06.2025).pdf","WLAB","routine"
"46","Glencairn Beach","XCS15","Recreational Node","False Bay","18.43218333","-34.15981667","True","XCS15","2025-06-05","11:10:00","2025-06-07","3.6","5","5","CWQ_105(05.06.2025).pdf","WLAB","routine"
"50","Woolley's Tidal Pool","CS42","Recreational Node","False Bay","18.44543279","-34.13273121","True","CS42","2025-06-05","10:43:00","2025-06-07","3.6","2","2","CWQ_105(05.06.2025).pdf","WLAB","routine"
"58","Sunrise Beach Parking Area","CS07","Recreational Node","False Bay","18.482613","-34.104809","True","CS07","2025-06-05","09:44:00","2025-06-07","3.6","136","136","CWQ_105(05.06.2025).pdf","WLAB","routine"
"47","Fish Hoek Beach Jager Walk","CS35","Recreational Node","False Bay","18.432959","-34.141276","True","CS35","2025-06-05","11:02:00","2025-06-07","3.6","10","10","CWQ_105(05.06.2025).pdf","WLAB","routine"
"25","Camps Bay South","CN11","Recreational Node","Atlantic","18.37566417","-33.95262556","True","CN11","2025-06-05","10:00:00","2025-06-07","3.6","6","6","Infinity Environmental AD.158.pdf","WLAB","daily"
"24","Camps Bay Central","CN41","Recreational Node","Atlantic","18.37711225","-33.95092422","True","CN41","2025-06-05","10:08:00","2025-06-07","3.6","7","7","Infinity Environmental AD.158.pdf","WLAB","daily"
"22","Glen Beach","CN31","Recreational Node","Atlantic","18.377192","-33.947056","True","CN31","2025-06-05","10:16:00","2025-06-07","3.6","8","8","Infinity Environmental AD.158.pdf","WLAB","daily"
"67","Strand Pipe Surfing","XCS34","Recreational Node","False Bay","18.81328622","-34.10333837","True","XCS34","2025-06-05","08:39:00","2025-06-07","3.1","530","530","Oelofse G.99.pdf","WLAB","daily"
"68","Strand Lifesaving Club","XCS26","Recreational Node","False Bay","18.81753333","-34.10616667","True","XCS26","2025-06-05","08:48:00","2025-06-07","3.1","490","490","Oelofse G.99.pdf","WLAB","daily"
"103","Strand Adjacent to Indoor Swimming Pool","XCS35","Coastal Monitoring Point","False Bay","18.82886575","-34.11996962","True","XCS35","2025-06-04","10:19:00","2025-06-06","5.2","38 000","38000","CWQ_103(04.06.2025).pdf","WLAB","routine"
"98","Strand Adjacent to Water Slides","CS32","Coastal Monitoring Point","False Bay","18.814436","-34.105044","True","CS32","2025-06-04","10:53:00","2025-06-06","5.2","65","65","CWQ_103(04.06.2025).pdf","WLAB","routine"
"70","Gordons Bay East Beach","XCS05","Recreational Node","False Bay","18.86756667","-34.160632","True","XCS05","2025-06-04","09:41:00","2025-06-06","5.2","90","90","CWQ_103(04.06.2025).pdf","WLAB","routine"
"71","Gordons Bay Milkwoods","CS29","Recreational Node","False Bay","18.865056","-34.161691","True","CS29","2025-06-04","09:38:00","2025-06-06","5.2","60","60","CWQ_103(04.06.2025).pdf","WLAB","routine"
"107","Gordons Bay Harbour Center","XCS07","Coastal Monitoring Point","False Bay","18.85915","-34.16485","True","XCS07","2025-06-04","09:33:00","2025-06-06","5.2","79","79","CWQ_103(04.06.2025).pdf","WLAB","routine"
"72","Gordons Bay Bikini Beach","XCS08","Recreational Node","False Bay","18.85868333","-34.16555","True","XCS08","2025-06-04","09:29:00","2025-06-06","5.2","9","9","CWQ_103(04.06.2025).pdf","WLAB","routine"
"66","Macassar Beach","XCS19","Recreational Node","False Bay","18.749314","-34.078065","True","XCS19","2025-06-04","11:22:00","2025-06-06","5.2","150","150","CWQ_103(04.06.2025).pdf","WLAB","routine"
"64","Monwabisi Tidal Pool","XCS18","Recreational Node","False Bay","18.68863333","-34.07313333","True","XCS18","2025-06-04",NULL,"2025-06-06","5.2","40","40","CWQ_104(04.06.2025).pdf","WLAB","routine"
"102","Strand Pavillion Jetty","XCS28","Coastal Monitoring Point","False Bay","18.827206","-34.118619","True","XCS28","2025-06-04","10:19:00","2025-06-06","5.2","130","130","CWQ_103(04.06.2025).pdf","WLAB","routine"
"73","Kogel Bay Beach","XCS09","Recreational Node","False Bay","18.85032","-34.236774","True","XCS09","2025-06-04","09:12:00","2025-06-06","5.2","1","1","CWQ_103(04.06.2025).pdf","WLAB","routine"
"62","Blue Waters Resort","CS46","Recreational Node","False Bay","18.58049079","-34.08177896","True","CS46","2025-06-04",NULL,"2025-06-06","5.2","270","270","CWQ_104(04.06.2025).pdf","WLAB","routine"
"61","Strandfontein Beach","CS45","Recreational Node","False Bay","18.55744323","-34.08733837","True","CS45","2025-06-04",NULL,"2025-06-06","5.2","230","230","CWQ_104(04.06.2025).pdf","WLAB","routine"
"95","Mitchells Plain Stormwater Discharge West","CS23W","Coastal Monitoring Point","False Bay","18.610164","-34.076124","True","CS23W","2025-06-04",NULL,"2025-06-06","5.2","150","150","CWQ_104(04.06.2025).pdf","WLAB","routine"
"105","Gordon's Bay Sir Lowry's Pass River","XCS04","Coastal Monitoring Point","False Bay","18.866507","-34.157527","True","XCS04","2025-06-04","09:46:00","2025-06-06","5.2","170","170","CWQ_103(04.06.2025).pdf","WLAB","routine"
"106","Gordons Bay Harbour Island","XCS23","Coastal Monitoring Point","False Bay","18.857723","-34.152222","True","XCS23","2025-06-04","09:51:00","2025-06-06","5.2","260","260","CWQ_103(04.06.2025).pdf","WLAB","routine"
"104","Gordons Bay WWTW","XCS01","Coastal Monitoring Point","False Bay","18.85288333","-34.14705","True","XCS01","2025-06-04","09:58:00","2025-06-06","5.2","230","230","CWQ_103(04.06.2025).pdf","WLAB","routine"
"69","Strand Harmonie Park Jetty","XCS29","Recreational Node","False Bay","18.84579525","-34.13991145","True","XCS29","2025-06-04","10:08:00","2025-06-06","5.2","37","37","CWQ_103(04.06.2025).pdf","WLAB","routine"
"89","Lifebox 23","CS09","Coastal Monitoring Point","False Bay","18.50106667","-34.09868333","True","CS09","2025-06-04",NULL,"2025-06-06","5.2","590","590","CWQ_104(04.06.2025).pdf","WLAB","routine"
"94","Mitchells Plain Stormwater Discharge East","CS23E","Coastal Monitoring Point","False Bay","18.61221667","-34.07566667","True","CS23E","2025-06-04",NULL,"2025-06-06","5.2","190","190","CWQ_104(04.06.2025).pdf","WLAB","routine"
"67","Strand Pipe Surfing","XCS34","Recreational Node","False Bay","18.81328622","-34.10333837","True","XCS34","2025-06-04","10:56:00","2025-06-06","5.2","46","46","CWQ_103(04.06.2025).pdf","WLAB","routine"
"97","Strand MPA","CS33","Coastal Monitoring Point","False Bay","18.806914","-34.098667","True","CS33","2025-06-04","11:00:00","2025-06-06","5.2","60","60","CWQ_103(04.06.2025).pdf","WLAB","routine"
"90","Sonwabe Parking Area","CS10","Coastal Monitoring Point","False Bay","18.51144","-34.096455","True","CS10","2025-06-04",NULL,"2025-06-06","5.2","330","330","CWQ_104(04.06.2025).pdf","WLAB","routine"
"99","Strand Stormwater Outlet Murray Street & Beach Road","CS30","Coastal Monitoring Point","False Bay","18.823639","-34.116424","True","CS30","2025-06-04","10:35:00","2025-06-06","5.2","104","104","CWQ_103(04.06.2025).pdf","WLAB","routine"
"100","Strand Opposite Burnard Street","XCS27","Coastal Monitoring Point","False Bay","18.821155","-34.111664","True","XCS27","2025-06-04","10:39:00","2025-06-06","5.2","124","124","CWQ_103(04.06.2025).pdf","WLAB","routine"
"101","Strand Beach Between Melkbaai and Da Gama Street","CS31","Coastal Monitoring Point","False Bay","18.81975","-34.1093611","True","CS31","2025-06-04","10:49:00","2025-06-06","5.2","119","119","CWQ_103(04.06.2025).pdf","WLAB","routine"
"68","Strand Lifesaving Club","XCS26","Recreational Node","False Bay","18.81753333","-34.10616667","True","XCS26","2025-06-04","10:51:00","2025-06-06","5.2","80","80","CWQ_103(04.06.2025).pdf","WLAB","routine"
"96","Mnandi Beach West Of Lifesaving Tower","CS15","Coastal Monitoring Point","False Bay","18.61866667","-34.07538333","True","CS15","2025-06-04",NULL,"2025-06-06","5.2","430","430","CWQ_104(04.06.2025).pdf","WLAB","routine"
"92","Lukanon Drive Near WW Pump Station","CS14","Coastal Monitoring Point","False Bay","18.58851667","-34.07981667","True","CS14","2025-06-04",NULL,"2025-06-06","5.2","58","58","CWQ_104(04.06.2025).pdf","WLAB","routine"
"91","Strandfontein Point West Of Tidal Pool","CS13","Coastal Monitoring Point","False Bay","18.54887567","-34.0888532","True","CS13","2025-06-04",NULL,"2025-06-06","5.2","79","79","CWQ_104(04.06.2025).pdf","WLAB","routine"
"59","Ribbon Road Parking Area","CS11","Recreational Node","False Bay","18.523396","-34.093636","True","CS11","2025-06-04",NULL,"2025-06-06","5.2","340","340","CWQ_104(04.06.2025).pdf","WLAB","routine"
"65","Monwabisi Beach","XCS30","Recreational Node","False Bay","18.68996667","-34.07284056","True","XCS30","2025-06-04",NULL,"2025-06-06","5.2","730","730","CWQ_104(04.06.2025).pdf","WLAB","routine"
"63","Mnandi Beach","CS19","Recreational Node","False Bay","18.622209","-34.075324","True","CS19","2025-06-04",NULL,"2025-06-06","5.2","60","60","CWQ_104(04.06.2025).pdf","WLAB","routine"
"93","Mitchells Plain WWED","CS18","Coastal Monitoring Point","False Bay","18.59825","-34.07793333","True","CS18","2025-06-04",NULL,"2025-06-06","5.2","160","160","CWQ_104(04.06.2025).pdf","WLAB","routine"
"60","Strandfontein Tidal Pool","CS17","Recreational Node","False Bay","18.55351667","-34.08911667","True","CS17","2025-06-04",NULL,"2025-06-06","5.2","77","77","CWQ_104(04.06.2025).pdf","WLAB","routine"
"22","Glen Beach","CN31","Recreational Node","Atlantic","18.377192","-33.947056","True","CN31","2025-06-04","10:18:00","2025-06-06","5.2","5","5","Infinity Environmental AD.156.pdf","WLAB","daily"
"24","Camps Bay Central","CN41","Recreational Node","Atlantic","18.37711225","-33.95092422","True","CN41","2025-06-04","10:08:00","2025-06-06","5.2","5","5","Infinity Environmental AD.156.pdf","WLAB","daily"
"25","Camps Bay South","CN11","Recreational Node","Atlantic","18.37566417","-33.95262556","True","CN11","2025-06-04","10:00:00","2025-06-06","5.2","3","3","Infinity Environmental AD.156.pdf","WLAB","daily"
"68","Strand Lifesaving Club","XCS26","Recreational Node","False Bay","18.81753333","-34.10616667","True","XCS26","2025-06-04","08:57:00","2025-06-06","3.3","220","220","Oelofse G.98.pdf","WLAB","daily"
"67","Strand Pipe Surfing","XCS34","Recreational Node","False Bay","18.81328622","-34.10333837","True","XCS34","2025-06-04","08:49:00","2025-06-06","3.3","240","240","Oelofse G.98.pdf","WLAB","daily"
"20","Maidens Cove Tidal Pool West Inside","CN19I","Recreational Node","Atlantic","18.37335","-33.944889","True","CN19I","2025-06-03","11:10:00","2025-06-05","2.8","40","40","CWQ_102(03.06.2025).pdf","WLAB","routine"
"25","Camps Bay South","CN11","Recreational Node","Atlantic","18.37566417","-33.95262556","True","CN11","2025-06-03","10:30:00","2025-06-05","2.8","195","195","Infinity Environmental AD.154(FB)","WLAB","routine"
"22","Glen Beach","CN31","Recreational Node","Atlantic","18.377192","-33.947056","True","CN31","2025-06-03","10:57:00","2025-06-05","2.8","123","123","Infinity Environmental AD.154(FB)","WLAB","routine"
"81","Camps Bay Tidal Pool Outside","CN12O","Coastal Monitoring Point","Atlantic","18.3751025","-33.95513444","True","CN12O","2025-06-03","10:41:00","2025-06-05","2.8","118","118","CWQ_102(03.06.2025).pdf","WLAB","routine"
"27","Barley Bay","CN14","Recreational Node","Atlantic","18.37688167","-33.95765444","True","CN14","2025-06-03","10:23:00","2025-06-05","2.8","530","530","CWQ_102(03.06.2025).pdf","WLAB","routine"
"29","Bakoven Beach","CN21","Recreational Node","Atlantic","18.37306972","-33.96049972","True","CN21","2025-06-03","10:18:00","2025-06-05","2.8","1 680","1680","CWQ_102(03.06.2025).pdf","WLAB","routine"
"28","Beta Beach","CN40","Recreational Node","Atlantic","18.37450268","-33.95956009","True","CN40","2025-06-03","10:15:00","2025-06-05","2.8","96","96","CWQ_102(03.06.2025).pdf","WLAB","routine"
"30","Cosy Bay","CN39","Recreational Node","Atlantic","18.36154654","-33.98211535","True","CN39","2025-06-03","10:07:00","2025-06-05","2.8","41","41","CWQ_102(03.06.2025).pdf","WLAB","routine"
"32","Llandudno","XCN03","Recreational Node","Atlantic","18.34031","-34.007816","True","XCN03","2025-06-03","09:54:00","2025-06-05","2.8","12","12","CWQ_102(03.06.2025).pdf","WLAB","routine"
"82","Logies Bay","CN38","Coastal Monitoring Point","Atlantic","18.34164296","-34.00508097","True","CN38","2025-06-03","09:47:00","2025-06-05","2.8","77","77","CWQ_102(03.06.2025).pdf","WLAB","routine"
"33","Hout Bay Mariners Wharf","HB13","Recreational Node","Atlantic","18.34918168","-34.04741935","True","HB13","2025-06-03","09:31:00","2025-06-05","2.8","770","770","CWQ_102(03.06.2025).pdf","WLAB","routine"
"17","Clifton Second Beach","CN42","Recreational Node","Atlantic","18.376607","-33.937505","True","CN42","2025-06-03","11:26:00","2025-06-05","2.8","100","100","CWQ_102(03.06.2025).pdf","WLAB","routine"
"18","Clifton Fourth Beach","CN09","Recreational Node","Atlantic","18.374417","-33.940619","True","CN09","2025-06-03","11:19:00","2025-06-05","2.8","73","73","CWQ_102(03.06.2025).pdf","WLAB","routine"
"80","Maidens Cove Tidal Pool West Outside","CN19O","Coastal Monitoring Point","Atlantic","18.37331667","-33.94483333","True","CN19O","2025-06-03","11:10:00","2025-06-05","2.8","24","24","CWQ_102(03.06.2025).pdf","WLAB","routine"
"19","Maidens Cove North Sandy Cove","CN10","Recreational Node","Atlantic","18.37227917","-33.94339361","True","CN10","2025-06-03","11:08:00","2025-06-05","2.8","90","90","CWQ_102(03.06.2025).pdf","WLAB","routine"
"21","Maidens Cove Tidal Pool East Inside","CN20I","Recreational Node","Atlantic","18.374671","-33.945203","True","CN20I","2025-06-03","11:07:00","2025-06-05","2.8","122","122","CWQ_102(03.06.2025).pdf","WLAB","routine"
